City_ID,City,Lat,Lng,Max Temp,Humidity,Cloudiness,Wind Speed,Country,Date
0,lebu,-37.6167,-73.65,10.39,50,89,2.1,CL,1698669041
1,ust-nera,64.5667,143.2,-16.73,97,74,1.06,RU,1698669087
2,college,64.8569,-147.8028,-3.03,86,75,0.0,US,1698669010
3,port-aux-francais,-49.35,70.2167,2.47,64,71,14.37,TF,1698669019
4,uglich,57.5275,38.3317,-1.55,95,100,4.05,RU,1698669458
5,tura,25.5198,90.2201,21.29,90,100,1.29,IN,1698669094
6,port-gentil,-0.7193,8.7815,29.98,74,40,6.17,GA,1698669459
7,haapsalu,58.9431,23.5414,3.32,82,100,3.5,EE,1698669459
8,albany,42.6001,-73.9662,9.34,94,100,0.45,US,1698668866
9,ilulissat,69.2167,-51.1,2.01,51,20,11.32,GL,1698669023
10,edinburgh of the seven seas,-37.0676,-12.3116,11.31,76,83,14.02,SH,1698669015
11,adamstown,-25.066,-130.1015,22.45,80,100,3.84,PN,1698669019
12,montrose,38.4166,-108.2673,-10.33,59,0,1.14,US,1698669460
13,waitangi,-43.9535,-176.5597,11.01,89,98,2.68,NZ,1698669022
14,utrik,11.2278,169.8474,28.11,83,100,9.69,MH,1698669009
15,whitehorse,60.7161,-135.0538,0.05,92,100,5.66,CA,1698669032
16,nemuro,43.3236,145.575,9.16,68,0,2.05,JP,1698669089
17,avarua,-21.2078,-159.775,23.03,73,75,3.09,CK,1698669044
18,ushuaia,-54.8,-68.3,1.81,72,75,8.94,AR,1698669024
19,bredasdorp,-34.5322,20.0403,18.85,49,0,11.29,ZA,1698669057
20,thompson,55.7435,-97.8558,-7.91,86,75,3.6,CA,1698669022
21,chonchi,-42.6128,-73.8092,6.18,89,71,1.48,CL,1698669059
22,grytviken,-54.2811,-36.5092,5.03,98,100,5.24,GS,1698669032
23,thunder bay,48.4001,-89.3168,-6.01,86,75,2.06,CA,1698669388
24,gisborne,-38.6533,178.0042,15.5,97,100,5.24,NZ,1698669118
25,suva,-18.1416,178.4415,23.71,100,75,0.0,FJ,1698669145
26,atafu village,-8.5421,-172.5159,28.65,76,19,7.52,TK,1698669114
27,saudarkrokur,65.7461,-19.6394,0.65,77,49,2.73,IS,1698669173
28,geraldton,-28.7667,114.6,18.23,72,0,9.77,AU,1698669130
29,dubbo,-32.25,148.6167,23.07,27,100,2.57,AU,1698669463
30,villa gesell,-37.2639,-56.973,13.36,46,37,6.19,AR,1698669463
31,kingston,17.997,-76.7936,28.53,84,20,4.12,JM,1698668852
32,bilibino,68.0546,166.4372,-20.79,76,5,1.44,RU,1698669017
33,longyearbyen,78.2186,15.6401,-4.09,80,40,5.66,SJ,1698669052
34,tofol,5.3248,163.0078,29.1,72,21,5.29,FM,1698669464
35,acapulco de juarez,16.8634,-99.8901,25.38,86,80,1.44,MX,1698669021
36,agoo,16.0833,120.1,26.18,81,99,1.67,PH,1698669464
37,nishinoomote,30.7333,131.0,20.7,58,1,1.74,JP,1698669464
38,ta`u,-14.2336,-169.5144,26.87,80,26,10.56,AS,1698669465
39,puerto ayora,-0.7393,-90.3518,23.64,91,100,1.79,EC,1698669061
40,kalundborg,55.6795,11.0886,13.51,83,25,11.71,DK,1698669465
41,nuku'alofa,-21.1333,-175.2,23.19,94,20,5.66,TO,1698669465
42,praia da vitoria,38.7333,-27.0667,19.14,68,20,3.96,PT,1698669153
43,touros,-5.1989,-35.4608,29.72,53,10,8.1,BR,1698669127
44,vadso,70.0744,29.7487,-3.91,80,40,7.2,NO,1698669117
45,kone,-21.0595,164.8658,18.87,71,39,1.61,NC,1698669466
46,constantia,44.1833,28.65,25.39,56,0,5.65,RO,1698669035
47,tuymazy,54.6067,53.7097,2.74,84,100,7.17,RU,1698669466
48,estacion santa engracia,24.0159,-99.2015,12.26,88,100,9.34,MX,1698669466
49,broken hill,-31.95,141.4333,16.96,41,5,10.78,AU,1698669466
50,saynshand,44.8824,110.1163,6.44,61,93,7.06,MN,1698669467
51,zhangzhou,24.5133,117.6556,22.96,84,14,0.98,CN,1698669467
52,pathardi,19.1667,75.1833,26.55,31,19,3.32,IN,1698669467
53,invercargill,-46.4,168.35,8.34,91,25,1.34,NZ,1698669077
54,aqaba,29.5267,35.0078,32.92,29,20,2.57,JO,1698669359
55,udachny,66.4167,112.4,-18.84,98,99,2.61,RU,1698669042
56,bethel,41.3712,-73.414,10.57,89,100,2.06,US,1698668873
57,west island,-12.1568,96.8225,26.99,83,100,7.72,CC,1698669012
58,sinan,34.8262,126.1086,14.06,63,0,2.02,KR,1698669468
59,carnarvon,-24.8667,113.6333,20.1,76,0,11.1,AU,1698669061
60,jiexiu,37.0244,111.9125,18.0,34,0,3.04,CN,1698669468
61,la ronge,55.1001,-105.2842,-6.86,79,0,5.14,CA,1698669463
62,yellowknife,62.456,-114.3525,-6.71,96,75,2.06,CA,1698669029
63,fort mcmurray,56.7268,-111.381,-6.27,79,0,1.03,CA,1698669182
64,puerto natales,-51.7236,-72.4875,2.25,69,100,2.57,CL,1698669019
65,olonkinbyen,70.9221,-8.7187,0.68,67,100,4.45,SJ,1698669051
66,hasaki,35.7333,140.8333,14.22,57,45,4.43,JP,1698669031
67,buka,40.8108,69.1986,23.57,27,94,2.02,UZ,1698669469
68,hermanus,-34.4187,19.2345,20.14,44,0,10.75,ZA,1698669083
69,lihue,21.9789,-159.3672,22.77,88,75,2.57,US,1698669039
70,brookings,44.3114,-96.7984,-6.62,89,20,2.57,US,1698668778
71,progreso,21.2833,-89.6667,22.84,84,3,1.24,MX,1698669470
72,gadzhiyevo,69.2551,33.3362,-4.63,95,100,7.51,RU,1698669175
73,porbandar,21.6422,69.6093,29.68,51,0,5.17,IN,1698669470
74,la passe,45.5549,-0.8967,16.12,62,22,8.96,FR,1698669054
75,lycksele,64.5954,18.6735,-6.98,93,100,2.06,SE,1698669470
76,smithers,54.7804,-127.1743,-8.82,92,20,1.03,CA,1698669470
77,maceio,-9.6658,-35.7353,28.69,65,40,3.6,BR,1698669281
78,pangody,65.85,74.4859,-13.81,96,19,2.0,RU,1698669474
79,hawaiian paradise park,19.5933,-154.9731,22.8,95,100,3.09,US,1698669013
80,isafjordur,66.0755,-23.124,0.02,93,75,0.0,IS,1698669090
81,yuanping,38.7153,112.7575,14.5,29,0,0.53,CN,1698669475
82,sisimiut,66.9395,-53.6735,-0.34,63,62,4.09,GL,1698669155
83,laojunmiao,39.8333,97.7333,10.38,23,54,2.72,CN,1698669475
84,ginir,7.1333,40.7,18.49,77,89,3.18,ET,1698669475
85,san luis de la loma,17.2706,-100.8939,25.33,84,46,1.66,MX,1698669475
86,watertown,42.3709,-71.1828,11.3,92,100,8.05,US,1698669188
87,le port,-20.9373,55.2919,28.27,77,29,3.22,RE,1698669309
88,klyuchi,52.2667,79.1667,7.9,94,100,4.9,RU,1698669047
89,ingeniero jacobacci,-41.3427,-69.5448,4.92,47,40,5.87,AR,1698669476
90,talnakh,69.4865,88.3972,-17.11,95,100,2.3,RU,1698669026
91,igarka,67.4667,86.5833,-16.64,97,90,1.41,RU,1698669128
92,turpan,42.9333,89.1667,16.36,33,19,0.91,CN,1698669059
93,yuzhno-kurilsk,44.0306,145.8556,7.99,76,0,2.48,RU,1698669109
94,rapid valley,44.0625,-103.1463,-2.98,68,0,2.68,US,1698669426
95,ribeira grande,38.5167,-28.7,19.22,68,20,3.09,PT,1698669064
96,wailua homesteads,22.0669,-159.378,22.44,84,75,2.57,US,1698669009
97,dorgali,40.2926,9.5881,20.51,59,100,5.95,IT,1698669477
98,sarmiento,-45.5882,-69.07,8.01,37,84,4.82,AR,1698669477
99,vilyuchinsk,52.9306,158.4028,3.85,78,100,3.25,RU,1698669084
100,dudinka,69.4058,86.1778,-16.85,97,100,0.89,RU,1698669049
101,umm kaddadah,13.6017,26.6876,36.28,12,42,4.07,SD,1698669477
102,gonabad,34.3529,58.6837,29.04,20,20,3.09,IR,1698669478
103,crane,31.3974,-102.3501,3.02,57,100,6.99,US,1698669126
104,kavaratti,10.5669,72.642,28.06,69,100,1.28,IN,1698669163
105,flying fish cove,-10.4217,105.6791,25.82,88,75,3.6,CX,1698669050
106,velingara,13.15,-14.1167,35.15,44,9,0.9,SN,1698669478
107,reggane,26.7158,0.1714,36.85,9,100,1.75,DZ,1698669478
108,truth or consequences,33.1284,-107.2528,2.13,52,75,9.77,US,1698669478
109,peace river,56.2501,-117.286,-4.08,92,100,2.57,CA,1698669172
110,port alfred,-33.5906,26.891,18.99,62,2,2.68,ZA,1698669035
111,anadyr,64.75,177.4833,1.28,86,75,9.0,RU,1698669008
112,stanley,54.868,-1.6985,9.33,89,75,5.14,GB,1698669023
113,blackmans bay,-43.0167,147.3167,10.07,84,100,2.89,AU,1698669020
114,kidal,18.4411,1.4078,37.18,6,0,4.41,ML,1698669105
115,bria,6.5423,21.9863,32.15,49,58,2.89,CF,1698669479
116,pasuquin,18.3328,120.6177,27.97,69,75,1.54,PH,1698669479
117,sinop,41.7711,34.8709,17.24,56,91,2.48,TR,1698669479
118,aur,8.1499,171.1687,26.84,85,100,6.47,MH,1698669480
119,labytnangi,66.6572,66.4183,-13.82,98,99,1.31,RU,1698669140
120,deqen,29.9618,90.7188,2.96,78,85,2.13,CN,1698669480
121,kill devil hills,36.0307,-75.676,19.99,91,0,4.12,US,1698669480
122,abingdon,51.6711,-1.2828,15.51,75,40,5.14,GB,1698669480
123,balykshi,47.0667,51.8667,11.0,58,0,7.0,KZ,1698669480
124,kaiapoi,-43.3783,172.6401,13.37,89,100,8.75,NZ,1698669480
125,petropavlovsk-kamchatsky,53.0452,158.6483,3.03,59,75,1.34,RU,1698669024
126,port lincoln,-34.7333,135.8667,12.42,72,9,6.34,AU,1698669037
127,hotan,37.0997,79.9269,18.48,16,2,2.51,CN,1698669065
128,pont rouge,48.8833,-72.0825,-0.84,95,100,3.19,CA,1698669481
129,dakhla,23.6848,-15.958,25.01,57,0,4.63,EH,1698669171
130,savanna-la-mar,18.219,-78.1332,27.74,73,55,1.5,JM,1698669481
131,port mathurin,-19.6833,63.4167,25.19,77,8,6.07,MU,1698669048
132,pryor,36.3084,-95.3169,0.16,81,0,3.09,US,1698669259
133,port elizabeth,-33.918,25.5701,19.16,54,0,9.77,ZA,1698668926
134,kayes,14.0,-11.0,33.31,39,6,2.26,ML,1698669482
135,georgetown,5.4112,100.3354,28.96,87,20,1.54,MY,1698669014
136,chui,-33.6971,-53.4616,19.35,90,100,5.2,UY,1698669482
137,tadine,-21.55,167.8833,19.61,72,17,3.68,NC,1698669169
138,moree,-29.4667,149.85,23.29,26,0,4.71,AU,1698669177
139,sikasso,10.9167,-7.0,36.67,25,0,2.07,ML,1698669483
140,heidelberg,-26.5048,28.3592,8.3,82,100,4.73,ZA,1698669484
141,punta arenas,-53.15,-70.9167,3.06,48,40,5.66,CL,1698668859
142,egilsstadir,65.2653,-14.3948,-0.05,80,0,1.54,IS,1698669051
143,tiksi,71.6872,128.8694,-19.1,100,100,2.44,RU,1698669036
144,usinsk,65.9939,57.5281,-8.85,81,100,3.13,RU,1698669166
145,bonthe,7.5264,-12.505,29.27,67,100,3.7,SL,1698669485
146,sao tome,0.3365,6.7273,27.84,74,100,1.98,ST,1698669155
147,q'vareli,41.9549,45.8172,20.13,52,39,2.33,GE,1698669485
148,richards bay,-28.783,32.0377,18.78,62,100,6.44,ZA,1698669117
149,iqaluit,63.7506,-68.5145,-11.15,78,75,3.6,CA,1698669025
150,tazacorte,28.629,-17.9293,25.54,96,20,10.29,ES,1698669086
151,chibougamau,49.9168,-74.3659,-3.21,100,100,1.03,CA,1698669097
152,east london,-33.0153,27.9116,17.72,49,12,7.22,ZA,1698669486
153,kindu,-2.95,25.95,34.22,38,99,1.1,CD,1698669070
154,charlotte amalie,18.3419,-64.9307,27.82,100,100,3.09,VI,1698669486
155,pangoa,-12.1167,-73.0,23.64,88,100,0.62,PE,1698669487
156,kamina,-8.7386,24.9906,25.43,65,100,3.47,CD,1698669487
157,cabo san lucas,22.8909,-109.9124,24.17,84,0,0.45,MX,1698668870
158,mahriz,31.5917,54.4318,26.28,16,74,2.44,IR,1698669487
159,malango,-2.9627,119.9001,20.15,92,33,0.87,ID,1698669488
160,luderitz,-26.6481,15.1594,23.09,42,0,2.74,NA,1698669037
161,asind,25.7333,74.3333,27.29,26,68,2.66,IN,1698669488
162,westport,41.1415,-73.3579,14.38,91,100,3.09,US,1698669382
163,bad konig,49.7431,9.0086,16.27,82,100,3.11,DE,1698669488
164,pindwara,24.8,73.0667,27.44,32,57,1.87,IN,1698669489
165,delphos,40.8434,-84.3416,5.54,90,100,5.4,US,1698669489
166,nianzishan,47.5167,122.8833,3.31,20,100,2.02,CN,1698669489
167,mikhaylov,54.2292,39.0186,7.59,89,100,8.15,RU,1698669489
168,mata-utu,-13.2816,-176.1745,28.2,76,11,4.46,WF,1698669088
169,papatowai,-46.5619,169.4708,7.86,96,3,2.69,NZ,1698669029
170,nyazepetrovsk,56.0531,59.6028,-0.01,95,100,4.02,RU,1698669490
171,jamestown,42.097,-79.2353,6.4,99,100,3.6,US,1698668831
172,mo i rana,66.3128,14.1428,-3.71,80,20,2.24,NO,1698669490
173,tekkekoy,41.2117,36.46,21.86,73,40,3.6,TR,1698669491
174,kiskunmajsa,46.4903,19.74,23.05,29,56,5.63,HU,1698669491
175,baukau,51.5526,7.2042,16.89,65,100,1.34,DE,1698669491
176,sao vicente,-23.9631,-46.3919,30.15,55,0,2.68,BR,1698669491
177,kaltan,53.5347,87.2457,-2.73,99,100,1.1,RU,1698669202
178,solwezi,-12.1688,26.3894,28.34,38,100,2.0,ZM,1698669492
179,teshi old town,5.5836,-0.1072,32.31,62,20,4.12,GH,1698669492
180,cooma,-36.2333,149.1333,13.02,53,0,6.44,AU,1698669492
181,hami,42.8,93.45,13.63,35,11,2.97,CN,1698669113
182,natal,-5.795,-35.2094,28.36,61,75,6.17,BR,1698669493
183,grambling,32.5276,-92.714,8.72,93,100,4.12,US,1698669493
184,qaqortoq,60.7167,-46.0333,5.92,60,100,11.02,GL,1698669014
185,dhidhdhoo,6.8833,73.1,27.12,73,100,1.69,MV,1698669493
186,bereeda,11.8704,51.0579,27.44,73,36,5.11,SO,1698669494
187,hazro city,33.9091,72.4921,25.35,34,0,1.53,PK,1698669494
188,posse,-14.0931,-46.3694,34.36,19,37,3.0,BR,1698669494
189,kano,12.0001,8.5167,35.94,17,0,5.66,NG,1698669494
190,pacific grove,36.6177,-121.9166,15.36,43,0,0.0,US,1698669078
191,navia,43.5354,-6.7194,16.43,64,100,5.48,ES,1698669495
192,ulsteinvik,62.3432,5.8487,5.73,54,0,6.26,NO,1698669146
193,cidreira,-30.1811,-50.2056,22.21,78,100,4.9,BR,1698669165
194,shimoda,34.6667,138.95,13.95,69,22,1.42,JP,1698669495
195,bamboo flat,11.7,92.7167,28.05,83,40,1.54,IN,1698669057
196,enewetak,11.3474,162.3373,28.73,74,100,7.82,MH,1698669080
197,kirakira,-10.4544,161.9205,25.85,88,98,4.51,SB,1698669496
198,ancud,-41.8697,-73.8203,7.41,83,100,5.36,CL,1698669172
199,guantanamo,20.1444,-75.2092,24.76,81,20,0.61,CU,1698669496
200,aykhal,66.0,111.5,-19.95,97,100,3.02,RU,1698669205
201,gomez farias,23.05,-99.15,19.34,90,68,3.16,MX,1698669497
202,palikir - national government center,6.9248,158.1611,27.41,83,100,3.09,FM,1698669133
203,vorgashor,67.5833,63.95,-18.47,98,100,2.21,RU,1698669035
204,gorontalo,0.5412,123.0595,25.36,87,24,0.47,ID,1698668931
205,niamey,13.5137,2.1098,41.16,7,0,5.66,NE,1698669497
206,najran,17.4924,44.1277,28.36,35,74,4.77,SA,1698669498
207,ierapetra,35.01,25.7353,23.52,67,24,0.37,GR,1698669498
208,phillip island,-38.4835,145.231,14.71,72,98,11.77,AU,1698669498
209,linxia chengguanzhen,35.6003,103.2064,12.48,41,78,0.84,CN,1698669498
210,guerrero negro,27.9769,-114.0611,17.29,58,0,2.07,MX,1698669185
211,george town,5.4112,100.3354,28.96,87,20,1.54,MY,1698669324
212,sawakin,19.1059,37.3321,30.7,64,91,5.14,SD,1698669499
213,illizi,26.4833,8.4667,35.89,10,6,2.0,DZ,1698669499
214,moranbah,-22.0016,148.0466,19.29,61,4,3.42,AU,1698669499
215,mabaruma,8.2,-59.7833,30.31,67,29,2.17,GY,1698669500
216,kurayoshi,35.4333,133.8167,12.95,81,1,1.68,JP,1698669500
217,maracas,-13.4411,-40.4308,28.02,29,84,1.81,BR,1698669500
218,kiuruvesi,63.65,26.6167,-3.79,90,24,0.65,FI,1698669500
219,zouerate,22.7187,-12.4521,36.11,9,0,1.76,MR,1698669501
220,toliara,-23.35,43.6667,26.12,64,4,7.56,MG,1698669175
221,shahrud,36.4182,54.9763,17.26,56,100,7.65,IR,1698669501
222,choyr,46.3611,108.3611,-2.18,80,8,6.07,MN,1698669501
223,grand-bassam,5.2118,-3.7388,29.98,71,71,3.55,CI,1698669501
224,san jose,37.3394,-121.895,15.56,43,0,0.45,US,1698668802
225,fuglafjordur,62.244,-6.814,5.26,68,100,7.05,FO,1698669502
226,alesund,62.4723,6.1549,5.74,58,0,7.2,NO,1698669106
227,santa ana de yacuma,-13.75,-65.4333,26.97,78,75,4.12,BO,1698669179
228,valle de la pascua,9.2155,-66.0073,29.59,60,48,2.61,VE,1698669502
229,alto araguaia,-17.3147,-53.2153,32.34,42,7,3.86,BR,1698669503
230,herbrechtingen,48.6217,10.176,14.25,80,100,2.89,DE,1698669503
231,vilhena,-12.7406,-60.1458,25.12,83,14,2.57,BR,1698669503
232,nema,57.5067,50.5011,-1.33,80,100,3.77,RU,1698669503
233,aasiaat,68.7098,-52.8699,-5.91,87,97,5.38,GL,1698669101
234,island harbour,50.724,-1.2758,14.61,84,98,2.68,GB,1698669504
235,tolanaro,-25.0319,46.9987,26.04,83,75,5.14,MG,1698669052
236,nova sintra,14.8667,-24.7167,23.43,63,100,0.69,CV,1698669087
237,chania,35.5122,24.0156,24.78,73,20,2.06,GR,1698669505
238,kodiak,57.79,-152.4072,7.73,100,100,3.6,US,1698669058
239,coahuayana de hidalgo,18.7,-103.6583,24.62,92,36,1.37,MX,1698669505
240,maracacume,-2.0428,-45.9592,34.18,40,61,2.7,BR,1698669505
241,harar,9.3094,42.1258,21.84,53,61,1.08,ET,1698669505
242,kapuskasing,49.4169,-82.4331,-4.95,93,75,3.09,CA,1698669049
243,san fernando de apure,7.8878,-67.4724,28.76,72,58,1.34,VE,1698669506
244,fort bragg,35.139,-79.006,17.91,97,0,3.6,US,1698668941
245,puerto baquerizo moreno,-0.9,-89.6,23.01,80,90,5.14,EC,1698668880
246,pagar alam,-4.0167,103.2667,24.69,54,91,0.84,ID,1698669506
247,mumford,5.2618,-0.759,28.49,76,41,3.86,GH,1698669507
248,bambanglipuro,-7.95,110.2833,25.98,86,7,2.44,ID,1698669507
249,alice springs,-23.7,133.8833,26.75,9,52,2.57,AU,1698669071
250,al hufuf,25.3646,49.5653,32.19,31,40,1.54,SA,1698669507
251,horta,38.5333,-28.6333,18.8,68,20,3.09,PT,1698669508
252,wangqing,43.3218,129.7634,8.15,85,10,0.27,CN,1698669508
253,mandera,3.9366,41.867,27.6,60,100,1.89,KE,1698669147
254,antonio enes,-16.2325,39.9086,28.4,68,10,5.79,MZ,1698669508
255,las tablas,7.7667,-80.2833,26.49,80,97,1.64,PA,1698669508
256,kalulushi,-12.8378,28.0919,31.16,27,97,3.11,ZM,1698669509
257,bogale,16.2833,95.4,26.68,84,31,1.29,MM,1698669509
258,alo,7.4178,6.7371,31.56,63,100,1.84,NG,1698669509
259,francisco sa,-16.4758,-43.4883,29.08,34,66,1.1,BR,1698669510
260,ponta delgada,37.7333,-25.6667,18.4,72,20,2.06,PT,1698669105
261,la sierpe,2.8518,-77.6155,25.94,84,82,0.5,CO,1698669510
262,margate,51.3813,1.3862,13.82,88,100,0.89,GB,1698669510
263,lompoc,34.6391,-120.4579,13.8,51,0,4.63,US,1698668975
264,sanming,26.2486,117.6186,19.14,84,100,1.02,CN,1698669511
265,kudahuvadhoo,2.6708,72.8944,27.92,70,43,4.05,MV,1698669511
266,pavlovsk,50.4578,40.1081,12.19,64,9,6.05,RU,1698669511
267,riverton,40.5219,-111.9391,-0.05,68,0,2.24,US,1698669255
268,norilsk,69.3535,88.2027,-16.99,96,100,1.85,RU,1698669512
269,cedeira,43.6797,-8.0209,13.32,77,75,11.32,ES,1698669512
270,yuxia,34.0615,108.6291,14.34,57,0,3.33,CN,1698669513
271,ghat,24.9647,10.1728,32.62,12,0,2.29,LY,1698669513
272,champerico,14.3,-91.9167,25.3,85,100,3.2,GT,1698669513
273,saipan,15.1355,145.701,28.39,83,40,5.66,MP,1698669072
274,okhotsk,59.3833,143.3,-6.58,85,62,2.2,RU,1698669050
275,afaahiti,-17.75,-149.2833,22.93,84,38,7.52,PF,1698669122
276,sandnessjoen,66.0217,12.6316,1.06,75,40,3.09,NO,1698669087
277,remire-montjoly,4.9167,-52.2667,31.02,70,75,4.63,GF,1698669041
278,oranjestad,12.524,-70.027,29.95,81,20,1.03,AW,1698669514
279,badger,64.8,-147.5333,-3.07,86,75,0.0,US,1698669017
280,timimoun,29.2639,0.231,33.21,13,0,4.63,DZ,1698669515
281,lodwar,3.1191,35.5973,31.32,43,45,8.59,KE,1698669515
282,fuling,29.7022,107.3919,19.26,76,7,1.09,CN,1698669515
283,portland,45.5234,-122.6762,6.99,66,0,6.26,US,1698669515
284,rio grande,-32.035,-52.0986,21.06,79,100,4.19,BR,1698669112
285,jaral del progreso,20.3667,-101.0667,12.09,90,0,1.87,MX,1698669516
286,mahikeng,-25.8652,25.6442,14.99,58,100,8.23,ZA,1698669516
287,kuqa,41.7278,82.9364,16.22,28,1,1.98,CN,1698669516
288,al wafrah,28.6392,47.9306,30.98,20,93,0.96,KW,1698669517
289,afua,-0.1567,-50.3867,32.33,49,12,3.01,BR,1698669517
290,cockburn town,21.4612,-71.1419,28.93,76,32,4.33,TC,1698669002
291,page,36.9147,-111.4558,2.88,35,0,2.06,US,1698669282
292,iskushuban,10.2837,50.23,29.32,53,95,6.76,SO,1698669517
293,taoudenni,22.6783,-3.9836,38.85,7,14,3.17,ML,1698669130
294,tazovsky,67.4667,78.7,-16.21,94,26,1.2,RU,1698669099
295,kirkintilloch,55.9393,-4.1526,9.34,68,100,8.23,GB,1698669518
296,namtsy,62.7161,129.6658,-15.04,96,100,2.1,RU,1698669052
297,saint-philippe,-21.3585,55.7679,27.77,83,52,4.86,RE,1698669518
298,leh,34.1667,77.5833,5.86,24,0,1.56,IN,1698669519
299,mil'kovo,55.6078,37.7956,4.12,100,100,6.67,RU,1698669519
300,gutao,37.2025,112.1781,16.76,31,0,2.16,CN,1698669519
301,linhares,-19.3911,-40.0722,29.52,50,100,2.24,BR,1698669519
302,port hedland,-20.3167,118.5667,28.03,78,40,6.17,AU,1698669107
303,jasper,37.2001,-94.3502,-1.64,79,0,3.6,US,1698669496
304,parras de la fuente,25.4167,-102.1833,11.68,89,100,5.68,MX,1698669520
305,codrington,-38.2667,141.9667,8.56,78,47,8.32,AU,1698669084
306,akbarabad,29.2464,52.7793,25.79,31,100,1.78,IR,1698669520
307,chu,43.5983,73.7614,18.95,40,100,1.32,KZ,1698669520
308,cacoal,-11.4386,-61.4472,33.8,41,27,2.07,BR,1698669521
309,verkhniye kigi,55.4083,58.6044,-0.47,98,100,4.18,RU,1698669521
310,gokceada,40.2011,25.909,22.6,83,20,6.17,TR,1698669521
311,ma'an,26.9775,110.7211,19.98,61,71,0.84,CN,1698669521
312,ko pha ngan,9.7578,100.0291,24.38,74,96,6.02,TH,1698669522
313,mount pearl,47.5166,-52.7813,4.69,63,20,11.32,CA,1698669072
314,san patricio,28.017,-97.5169,8.94,70,100,9.64,US,1698669066
315,st. john's,47.5649,-52.7093,5.15,62,20,11.32,CA,1698669116
316,northam,51.0333,-4.2167,15.22,81,9,5.79,GB,1698669522
317,margaret river,-33.95,115.0667,12.64,73,0,5.95,AU,1698669035
318,tanjung pandan,-2.75,107.65,26.93,72,44,1.73,ID,1698669178
319,dobrota,42.4542,18.7683,23.99,53,0,2.06,ME,1698669523
320,tayshet,55.9342,98.0044,-6.08,58,0,1.05,RU,1698669523
321,sorong,-0.8833,131.25,27.35,78,47,2.05,ID,1698669523
322,ambovombe,-25.1667,46.0833,25.45,68,20,7.18,MG,1698669161
323,colonia,50.9333,6.95,16.74,73,0,6.17,DE,1698668984
324,chokwe,-24.5333,32.9833,17.99,61,100,5.33,MZ,1698669524
325,acarau,-2.8856,-40.12,30.93,53,16,7.25,BR,1698669284
326,tejupilco de hidalgo,18.9,-100.15,16.66,90,7,2.14,MX,1698669524
327,metlili chaamba,32.2667,3.6333,29.52,10,40,8.75,DZ,1698669151
328,pariaman,-0.619,100.12,26.03,89,63,1.43,ID,1698669524
329,pitimbu,-7.4706,-34.8086,29.33,60,42,6.77,BR,1698669135
330,bubaque,11.2833,-15.8333,28.29,68,98,1.3,GW,1698669525
331,little falls,40.869,-74.2082,12.8,90,100,3.09,US,1698669525
332,bardai,11.65,7.2333,35.06,15,59,6.5,NG,1698669525
333,minab,27.1467,57.0801,30.73,43,85,3.32,IR,1698669168
334,cannonvale,-20.2833,148.7,22.66,65,86,4.03,AU,1698669525
335,bogra,24.85,89.3667,25.49,61,98,1.23,BD,1698669326
336,kramfors,62.9316,17.7765,-0.12,86,100,3.09,SE,1698669526
337,grand falls-windsor,48.9332,-55.6649,1.39,72,42,0.45,CA,1698668839
338,vernon,50.2581,-119.2691,-1.5,75,99,2.57,CA,1698669231
339,queenstown,-31.8976,26.8753,16.09,32,0,10.02,ZA,1698669526
340,rybnik,50.0971,18.5418,20.36,72,47,2.24,PL,1698669526
341,nantucket,41.2835,-70.0995,13.08,100,100,6.17,US,1698669070
342,walvis bay,-22.9575,14.5053,19.53,63,0,4.63,NA,1698669040
343,makurazaki,31.2667,130.3167,17.2,69,13,2.19,JP,1698669527
344,tromso,69.6496,18.957,-2.99,93,75,2.57,NO,1698669527
345,ondangwa,-17.9167,15.95,38.0,5,36,2.06,NA,1698669527
346,paciran,-6.8767,112.3761,28.66,74,12,5.4,ID,1698669527
347,mount darwin,-16.7725,31.5838,27.51,44,100,5.93,ZW,1698669528
348,tsiombe,-25.3,45.4833,28.08,52,16,6.9,MG,1698669117
349,gohpur,26.8833,93.6333,22.59,79,0,0.69,IN,1698669528
350,san fernando,15.0286,120.6898,28.85,79,98,2.61,PH,1698669528
351,floro,61.5996,5.0328,6.04,33,20,3.6,NO,1698669157
352,gilgit,35.9221,74.3087,16.83,36,0,1.28,PK,1698669528
353,hovd,48.0056,91.6419,4.67,55,100,1.24,MN,1698669528
354,malanje,-9.5402,16.341,30.31,41,100,1.19,AO,1698669529
355,saint-francois,46.4154,3.9054,13.69,94,75,3.6,FR,1698669529
356,yamada,39.4667,141.95,11.31,87,4,1.64,JP,1698669106
357,buzuluk,52.7807,52.2635,3.87,94,100,8.05,RU,1698669529
358,weno,7.4515,151.8468,28.39,78,95,5.42,FM,1698669118
359,bereznik,62.8551,42.7072,-4.26,77,7,1.38,RU,1698669530
360,juneau,58.3019,-134.4197,4.12,95,100,8.23,US,1698669530
361,road town,18.4167,-64.6167,28.02,78,20,5.14,VG,1698669131
362,phuthaditjhaba,-28.5242,28.8158,5.07,94,100,2.71,ZA,1698669530
363,kuanda,56.3161,116.0806,-9.35,50,12,0.99,RU,1698669530
364,owen sound,44.5672,-80.9435,3.83,94,100,4.02,CA,1698669369
365,el alto,-4.2714,-81.2147,19.81,66,100,4.22,PE,1698669530
366,pisco,-13.7,-76.2167,19.45,82,32,1.54,PE,1698669074
367,milford haven,51.7128,-5.0341,13.39,89,94,7.34,GB,1698669531
368,vilyuysk,63.7553,121.6247,-11.67,96,86,1.79,RU,1698669155
369,glace bay,46.1969,-59.957,4.88,86,75,1.54,CA,1698669408
370,lesogorsk,56.0458,99.5136,-2.82,42,0,0.89,RU,1698669531
371,papao,-17.75,-149.55,23.82,84,32,8.85,PF,1698669531
372,dryden,49.7833,-92.7503,-6.84,93,100,2.06,CA,1698669085
373,luz,-19.8014,-45.6856,29.67,55,99,1.23,BR,1698669531
374,zhigulevsk,53.3997,49.4953,2.32,74,97,4.98,RU,1698669532
375,xinqing,48.2333,129.5,1.27,85,97,1.16,CN,1698669532
376,tangalle,6.024,80.7911,26.09,82,100,2.42,LK,1698669113
377,shanhecun,44.7,127.2,4.9,28,99,1.48,CN,1698669532
378,birzebbuga,35.8258,14.5269,26.38,69,40,7.72,MT,1698669532
379,kerikeri,-35.2268,173.9474,16.62,95,96,3.86,NZ,1698669180
380,guadalupe y calvo,26.1,-106.9667,7.42,64,0,2.32,MX,1698669532
381,uturoa,-16.7333,-151.4333,25.94,81,16,7.79,PF,1698669111
382,boda,4.3189,17.4695,31.49,54,24,2.45,CF,1698669533
383,uddevalla,58.3478,11.9424,10.18,96,100,0.89,SE,1698669279
384,esmeralda,21.8525,-78.1169,26.61,84,19,1.8,CU,1698669533
385,san andres,12.5847,-81.7006,25.01,100,20,1.03,CO,1698669533
386,inarajan village,13.2736,144.7484,29.08,90,50,4.67,GU,1698669533
387,labrador city,52.9463,-66.9114,-5.05,80,75,3.09,CA,1698669095
388,selfoss,63.9331,-20.9971,1.14,68,63,2.89,IS,1698669138
389,bamnet narong,15.4992,101.6897,25.05,86,100,4.21,TH,1698669534
390,maumere,-8.6199,122.2111,27.29,78,51,1.39,ID,1698669534
391,guiuan,11.0333,125.7247,29.0,73,100,6.78,PH,1698669534
392,houlton,46.1262,-67.8403,0.23,76,100,1.54,US,1698669534
393,adrar,20.5022,-10.0711,36.29,8,2,1.37,MR,1698669166
394,gaspe,48.8334,-64.4819,1.95,64,100,3.09,CA,1698669535
395,hammerfest,70.6634,23.6821,0.25,80,75,2.57,NO,1698669535
396,allapalli,19.4167,80.0667,22.81,63,3,1.14,IN,1698669535
397,flin flon,54.7682,-101.865,-8.09,73,20,6.69,CA,1698669535
398,siwa oasis,29.2041,25.5195,28.97,32,38,3.12,EG,1698669149
399,sur,22.5667,59.5289,28.15,59,64,3.36,OM,1698669535
400,ayvacik,39.6011,26.4047,27.02,49,0,2.29,TR,1698669536
401,qamdo,31.1667,97.2333,-0.84,52,67,2.66,CN,1698669124
402,bojnurd,37.4747,57.329,19.97,52,20,10.8,IR,1698669536
403,poxoreo,-15.8372,-54.3892,36.3,33,7,2.47,BR,1698669536
404,nasir,15.5894,32.5634,36.59,25,100,1.99,SD,1698669536
405,okha,53.5739,142.9478,2.92,69,100,6.62,RU,1698669536
406,bikenibeu village,1.3673,173.1241,28.98,84,75,1.03,KI,1698669537
407,lata,40.1629,-8.3327,17.82,80,53,4.44,PT,1698669176
408,lhokseumawe,5.1801,97.1507,26.88,81,100,0.29,ID,1698669537
409,ifanadiana,-21.3,47.6333,25.55,73,93,1.48,MG,1698669537
410,peterhead,57.5058,-1.7981,8.22,63,100,7.12,GB,1698669247
411,redwood falls,44.5394,-95.1169,-5.99,86,0,4.63,US,1698669538
412,greenville,35.6127,-77.3663,18.96,97,0,3.6,US,1698669538
413,luau,-10.7073,22.2247,26.73,56,98,2.79,AO,1698669538
414,keflavik,64.0049,-22.5624,5.24,75,40,7.72,IS,1698669108
415,lerwick,60.1545,-1.1494,8.0,56,33,10.51,GB,1698669538
416,hacienda huancane,-15.8222,-70.8856,5.14,20,6,1.02,PE,1698669539
417,salaberry-de-valleyfield,45.2501,-74.1325,0.98,98,100,2.57,CA,1698669446
418,namie,37.4833,141.0,10.55,84,0,2.25,JP,1698669539
419,sarandi,-23.4436,-51.8739,23.99,83,95,4.78,BR,1698669449
420,rongelap,11.1635,166.8941,28.3,81,100,9.94,MH,1698669539
421,karagandy,49.8019,73.1021,8.97,72,100,4.33,KZ,1698669539
422,umluj,25.0213,37.2685,29.08,56,0,5.18,SA,1698669540
423,las lomitas,-24.7096,-60.593,31.33,54,100,3.73,AR,1698669540
424,nogliki,51.8333,143.1667,2.41,71,100,1.34,RU,1698669540
425,santa cruz,-17.8,-63.1667,26.7,83,75,11.32,BO,1698668869
426,usogorsk,63.4106,48.6872,-3.52,83,100,1.84,RU,1698669137
427,vila velha,-20.3297,-40.2925,28.97,58,0,6.17,BR,1698669121
428,saint-pierre,-21.3393,55.4781,28.09,65,75,5.66,RE,1698669107
429,zag,46.9441,99.165,-1.37,74,9,0.82,MN,1698669541
430,vallenar,-28.5708,-70.7581,20.69,40,100,0.91,CL,1698669541
431,namibe,-15.1961,12.1522,24.64,60,0,5.1,AO,1698669129
432,taybad,34.74,60.7756,26.03,21,62,2.37,IR,1698669541
433,canutama,-6.5339,-64.3831,33.43,45,29,0.5,BR,1698669542
434,manadhoo,5.7667,73.3833,27.27,77,100,3.27,MV,1698669081
435,muisne,0.6,-80.0333,24.66,87,100,3.11,EC,1698669542
436,kamaishi,39.2667,141.8833,12.3,84,8,1.83,JP,1698669416
437,howard springs,-12.497,131.047,29.95,76,99,3.3,AU,1698669075
438,clearwater,27.9659,-82.8001,21.71,84,0,0.89,US,1698669543
439,tual,-5.6667,132.75,27.93,83,100,7.73,ID,1698669135
440,naze,28.3667,129.4833,20.51,76,45,3.93,JP,1698669140
441,arraial do cabo,-22.9661,-42.0278,27.92,78,0,3.6,BR,1698669011
442,bata,1.8639,9.7658,28.49,74,100,2.55,GQ,1698669544
443,luganville,-15.5333,167.1667,25.21,86,43,2.59,VU,1698669544
444,labuan,5.2767,115.2417,28.2,88,20,1.03,MY,1698669544
445,freeport,40.6576,-73.5832,15.04,92,100,2.06,US,1698669545
446,ilebo,-4.3167,20.5833,31.41,58,100,0.14,CD,1698669545
447,aktau,43.65,51.2,16.32,69,0,6.13,KZ,1698669545
448,amasra,41.7463,32.3863,24.03,72,6,3.06,TR,1698669328
449,sovetsk,55.0839,21.8785,12.66,79,100,6.02,RU,1698669545
450,tosya,41.0155,34.0401,21.45,44,100,1.9,TR,1698669546
451,nar'yan-mar,67.6713,53.087,-6.61,94,100,6.71,RU,1698669059
452,fada,9.5667,8.3,32.85,25,89,2.91,NG,1698669184
453,kristiansund,63.1115,7.732,3.03,69,0,3.09,NO,1698669546
454,cartagena del chaira,1.3349,-74.8429,23.84,94,100,0.42,CO,1698669546
455,bodo,67.28,14.405,-0.68,76,0,6.17,NO,1698669547
456,alaior,39.9303,4.1404,19.86,73,20,7.72,ES,1698669547
457,motygino,58.1831,94.7592,-7.34,75,6,0.45,RU,1698669547
458,bereket,39.2446,55.5154,25.09,38,21,6.41,TM,1698669547
459,plastun,44.7561,136.2939,7.46,56,77,2.03,RU,1698669548
460,daru,-9.0763,143.2092,25.06,85,100,6.83,PG,1698669548
461,jayapura,-2.5333,140.7,26.66,89,98,1.97,ID,1698669102
462,midland,31.9974,-102.0779,1.37,61,100,8.75,US,1698669548
463,s'arenal,39.5,2.75,22.57,72,40,9.26,ES,1698669549
464,gebre guracha,9.8,38.4,18.12,60,98,1.02,ET,1698669549
465,camiri,-20.05,-63.5167,24.88,78,5,0.0,BO,1698669549
466,buchanan,5.8808,-10.0467,28.85,70,39,2.05,LR,1698669550
467,hamilton,39.1834,-84.5333,7.77,94,100,5.66,US,1698669550
468,hobyo,5.3505,48.5268,26.46,73,100,5.2,SO,1698669550
469,belogorsk,50.9158,128.4611,-3.17,54,9,3.21,RU,1698669551
470,figuig (centre),32.1089,-1.2286,26.66,22,100,3.14,MA,1698669551
471,nova olimpia,-14.7972,-57.2881,35.23,36,68,2.28,BR,1698669551
472,olovyannaya,50.95,115.5667,-2.73,30,100,0.72,RU,1698669551
473,morondava,-20.2833,44.2833,28.19,59,0,10.37,MG,1698669104
474,happy valley-goose bay,53.3168,-60.3315,-3.83,74,20,4.63,CA,1698669163
475,kalmunai,7.4167,81.8167,27.21,75,37,1.68,LK,1698669552
476,tabou,4.423,-7.3528,28.96,68,18,3.65,CI,1698669552
477,miracema do tocantins,-9.5618,-48.3967,38.46,20,2,1.63,BR,1698669058
478,el granada,37.5027,-122.4694,14.99,62,40,2.06,US,1698669552
479,borzna,51.2546,32.4269,15.42,60,100,6.59,UA,1698669553
480,iskateley,67.6803,53.1512,-6.66,94,100,6.71,RU,1698669154
481,sao felix do xingu,-6.6447,-51.995,34.27,40,5,2.01,BR,1698669553
482,cabedelo,-6.9811,-34.8339,29.37,63,88,6.91,BR,1698669168
483,polyarnyy,69.1989,33.4478,-4.44,94,100,7.12,RU,1698669150
484,beloyarskiy,63.7119,66.6722,-8.89,83,41,2.24,RU,1698669554
485,rafah,31.287,34.2595,29.73,40,64,3.1,PS,1698669554
486,nabire,-3.3667,135.4833,24.89,91,100,1.48,ID,1698669108
487,kayangel,8.0823,134.7173,28.77,73,16,2.38,PW,1698669554
488,chauk,20.8833,94.8167,27.22,68,69,3.02,MM,1698669554
489,slave lake,55.2834,-114.769,-5.01,86,100,0.0,CA,1698669555
490,alta gracia,-31.6529,-64.4283,13.64,62,100,5.55,AR,1698669555
491,north perth,43.7251,-80.9672,3.3,92,100,2.45,CA,1698669555
492,dhromolaxia,34.8755,33.5868,31.58,70,0,3.13,CY,1698669555
493,hanceville,34.0607,-86.7675,19.75,83,100,4.22,US,1698669555
494,westhill,57.1526,-2.2797,7.69,71,100,3.09,GB,1698669556
495,marksville,31.128,-92.0662,13.25,76,100,7.14,US,1698669561
496,vuktyl,63.8567,57.3094,-7.16,70,100,4.47,RU,1698669110
497,la gi,10.6667,107.7833,27.13,85,100,4.17,VN,1698669562
498,tannum sands,-23.9504,151.3693,21.94,64,5,2.06,AU,1698669562
499,abadeh,31.1608,52.6506,20.78,19,90,4.1,IR,1698669562
500,coquimbo,-29.9533,-71.3436,15.85,72,0,1.03,CL,1698669012
501,fortuna,40.5982,-124.1573,6.51,81,0,0.0,US,1698669563
502,talara,-4.5772,-81.2719,21.42,83,0,7.2,PE,1698669563
503,lazaro cardenas,17.9583,-102.2,24.89,88,13,1.73,MX,1698669563
504,manzini,-26.25,31.5,14.62,59,100,3.94,SZ,1698669563
505,idil,37.3411,41.8895,27.96,18,0,1.54,TR,1698669563
506,prata,-19.3072,-48.9242,32.91,41,54,3.39,BR,1698669563
507,san antonio de pale,-1.4014,5.6325,26.41,85,84,5.74,GQ,1698669016
508,darwin,-12.4611,130.8418,29.99,71,75,4.12,AU,1698669564
509,bengkulu,-3.8004,102.2655,23.74,94,9,2.67,ID,1698669094
510,filadelfia,39.9523,-75.1638,14.05,94,100,2.06,US,1698669351
511,haiku-pauwela,20.9219,-156.3051,24.47,81,0,1.54,US,1698669173
512,veinticinco de mayo,-35.4323,-60.1727,13.88,54,45,4.02,AR,1698669565
513,midvagur,62.0511,-7.1939,5.46,70,20,2.57,FO,1698669565
514,santa marta,11.2408,-74.199,27.16,77,20,1.79,CO,1698669129
515,beroroha,-21.6667,45.1667,38.1,16,31,4.43,MG,1698669566
516,rabaul,-4.1967,152.1721,25.58,89,97,6.64,PG,1698669566
517,al minya,28.1099,30.7503,33.03,30,0,3.92,EG,1698669566
518,riosucio,5.4216,-75.7032,14.21,95,100,0.4,CO,1698669566
519,piedmont,37.8244,-122.2316,14.49,49,40,1.54,US,1698669567
520,leninskoye,41.7589,69.3864,20.34,35,100,1.74,KZ,1698669567
521,salalah,17.0151,54.0924,30.05,58,20,3.6,OM,1698669567
522,tobelo,1.7284,128.0095,27.02,77,100,0.91,ID,1698669567
523,khandyga,62.6667,135.6,-8.94,96,100,1.97,RU,1698669105
524,noumea,-22.2763,166.4572,17.99,62,85,2.27,NC,1698669553
525,dazhou,31.2159,107.5009,19.72,68,100,0.83,CN,1698669568
526,bel ombre,-4.6167,55.4167,28.91,70,20,2.57,SC,1698669101
527,ceerigaabo,10.6162,47.368,21.55,50,20,0.79,SO,1698669568
528,es castell,39.8795,4.2854,20.38,73,20,7.72,ES,1698669569
529,velingrad,42.0272,23.9957,20.49,31,0,1.79,BG,1698669570
530,memmingen,47.9837,10.1853,13.68,79,0,3.09,DE,1698669570
531,tandil,-37.3217,-59.1332,11.49,29,93,6.45,AR,1698669570
532,mejit,10.2753,170.8646,27.93,82,100,9.85,MH,1698669091
533,sitka,57.0531,-135.33,8.94,71,100,6.17,US,1698669085
534,rumonge,-3.9736,29.4386,27.83,64,98,2.05,BI,1698669571
535,tafuna,-14.3358,-170.72,26.97,89,75,5.66,AS,1698669571
536,sandakan,5.8402,118.1179,28.82,83,40,2.68,MY,1698669572
537,laguna,38.421,-121.4238,11.16,76,0,0.0,US,1698669096
538,beau vallon,-20.4189,57.6953,28.13,65,40,4.63,MU,1698669572
539,subaykhan,34.8544,40.6083,30.18,24,100,2.58,SY,1698669572
540,oral,51.2333,51.3667,3.99,75,100,6.0,KZ,1698669572
541,yambio,4.5721,28.3955,27.55,73,85,2.64,SS,1698669573
542,vorkuta,67.5,64.0,-19.1,99,100,1.7,RU,1698669573
543,makinsk,52.6292,70.4169,3.25,97,100,4.75,KZ,1698669573
544,annaba,36.9,7.7667,34.98,14,75,5.66,DZ,1698669573
545,caister-on-sea,52.6481,1.7265,15.79,75,100,3.62,GB,1698669574
546,ondjiva,-17.0667,15.7333,38.42,6,2,4.32,AO,1698669574
547,aginskoye,51.1,114.53,-4.5,64,100,2.14,RU,1698669574
548,ambalangoda,6.2355,80.0538,26.1,83,100,2.05,LK,1698669574
549,winnemucca,40.973,-117.7357,-10.97,67,0,0.0,US,1698669575
550,concepcion del oro,24.6333,-101.4167,13.38,83,36,4.42,MX,1698669575
551,minas de marcona,-15.2119,-75.1103,16.48,75,49,5.96,PE,1698669112
552,emerald,-23.5333,148.1667,22.41,46,10,6.8,AU,1698669118
553,fale old settlement,-9.3852,-171.2468,28.61,76,8,6.92,TK,1698669575
554,dabrowa bialostocka,53.6536,23.3479,15.88,67,11,4.83,PL,1698669576
555,burang,30.25,81.1667,1.7,82,85,2.37,CN,1698669095
556,maryborough,-25.5333,152.7,17.84,79,7,1.47,AU,1698669576
557,palmer,42.1584,-72.3287,9.36,84,100,1.54,US,1698668727
558,manta,-0.95,-80.7333,24.88,78,100,2.57,EC,1698669576
559,isfana,39.8386,69.5306,16.31,41,100,0.6,KG,1698669577
560,dogansehir,38.0919,37.8789,21.59,35,100,1.64,TR,1698669577
561,yaren,-0.5472,166.916,28.48,67,99,1.69,NR,1698669577
562,mount gambier,-37.8333,140.7667,8.49,80,73,5.79,AU,1698668929
563,nikolayevsk-on-amure,53.1406,140.73,1.29,84,100,1.83,RU,1698669062
564,muynoq,43.7683,59.0214,12.39,80,100,4.36,UZ,1698669577
565,basse-terre,16.1667,-61.6667,29.22,79,20,3.6,GP,1698669578
566,mirpur sakro,24.5474,67.6277,29.96,42,21,5.31,PK,1698669578
567,matoury,4.8483,-52.3317,31.98,66,40,5.14,GF,1698669578
568,belmonte,-15.8631,-38.8828,27.75,56,78,4.32,BR,1698669579
569,zaki biam,7.5167,9.6167,35.73,41,100,1.46,NG,1698669579
570,ryotsu-minato,38.0833,138.4333,15.39,75,71,2.13,JP,1698669579
571,west bay,19.3667,-81.4167,27.04,82,20,2.57,KY,1698669579
572,ola,59.5833,151.2833,-2.34,66,6,2.29,RU,1698669580
573,ciudad insurgentes,25.2625,-111.7753,19.97,79,0,2.45,MX,1698669580
574,siguiri,11.6667,-9.5,35.85,30,73,1.48,GN,1698669407
575,safotu,-13.4513,-172.4018,27.35,83,69,7.27,WS,1698669580
576,tyuratam,45.6507,63.3156,13.35,63,100,5.41,KZ,1698669581
577,hiji,33.3667,131.5333,15.94,71,0,1.72,JP,1698669581
578,kailua-kona,19.6406,-155.9956,24.77,79,0,3.13,US,1698669044
579,san miguel,13.4833,-88.1833,23.06,98,98,0.85,SV,1698669581
580,monte santo,-10.4378,-39.3328,29.9,32,51,3.27,BR,1698669582
581,capo d'orlando,38.1435,14.7305,27.12,50,12,2.24,IT,1698669582
582,somerset,40.5668,-74.5496,13.39,90,100,0.45,US,1698669582
583,melekeok village,7.4957,134.6367,26.31,94,40,1.54,PW,1698669582
584,kazan,55.7887,49.1221,0.41,90,100,3.13,RU,1698669583
585,kamennomostskiy,44.2983,40.1856,18.5,50,0,1.59,RU,1698669583
586,katsuren-haebaru,26.3369,127.8719,24.01,73,0,2.57,JP,1698669583
587,inhambane,-23.865,35.3833,21.99,64,75,9.26,MZ,1698669097
588,lionel town,17.8101,-77.2406,28.94,73,80,1.51,JM,1698669583
589,callao,-12.0667,-77.15,20.4,88,100,3.6,PE,1698669583
590,quellon,-43.1167,-73.6167,7.16,75,54,2.19,CL,1698669060
591,iwaki,37.05,140.8833,9.87,77,1,2.0,JP,1698669584
592,iho,5.5667,7.1,29.46,68,100,1.43,NG,1698669586
593,bandarbeyla,9.4942,50.8122,27.78,72,9,4.39,SO,1698669146
594,belyy yar,53.6039,91.3903,-2.06,69,100,2.0,RU,1698669587
