City_ID,City,Lat,Lng,Max Temp,Humidity,Cloudiness,Wind Speed,Country,Date
0,pisco,-13.7,-76.2167,20.03,77,0,9.26,PE,1698625242
1,waitangi,-43.9535,-176.5597,10.94,77,2,3.37,NZ,1698625242
2,bethel,41.3712,-73.414,9.64,88,100,3.09,US,1698625152
3,cidreira,-30.1811,-50.2056,20.84,89,55,2.79,BR,1698625243
4,ancud,-41.8697,-73.8203,7.34,75,57,10.02,CL,1698625243
5,verdal,63.7933,11.4817,-4.98,76,94,1.35,NO,1698625243
6,kirensk,57.7853,108.1119,-3.91,51,100,3.58,RU,1698625243
7,torzhok,57.0436,34.9622,-3.16,94,96,1.81,RU,1698625243
8,dampit,-8.2116,112.7493,25.98,61,72,2.32,ID,1698625244
9,margaret river,-33.95,115.0667,13.06,62,94,4.09,AU,1698625244
10,yellowknife,62.456,-114.3525,-5.33,94,75,2.57,CA,1698625244
11,puerto ayora,-0.7393,-90.3518,24.19,90,64,2.24,EC,1698625244
12,pyhajarvi,67.0701,27.2176,-9.65,98,100,0.56,FI,1698625244
13,adamstown,-25.066,-130.1015,22.38,83,95,5.18,PN,1698625244
14,port saint john's,-31.6229,29.5448,14.52,62,98,2.62,ZA,1698625245
15,santa cruz,-17.8,-63.1667,27.7,78,40,7.72,BO,1698625132
16,grytviken,-54.2811,-36.5092,4.5,99,100,2.93,GS,1698625245
17,blackmans bay,-43.0167,147.3167,16.07,59,89,3.72,AU,1698625245
18,avarua,-21.2078,-159.775,26.03,61,20,3.6,CK,1698625048
19,nkove,-7.95,30.85,23.81,76,81,1.75,TZ,1698625246
20,keflavik,64.0049,-22.5624,4.24,75,0,2.57,IS,1698625246
21,labrador city,52.9463,-66.9114,-3.05,68,75,4.63,CA,1698625246
22,chibougamau,49.9168,-74.3659,-1.21,69,100,1.03,CA,1698625246
23,port-aux-francais,-49.35,70.2167,1.92,70,100,11.06,TF,1698624954
24,sitka,57.0531,-135.33,7.94,66,75,2.06,US,1698625034
25,enoch,37.7733,-113.0244,4.14,33,0,7.2,US,1698625246
26,kingston,17.997,-76.7936,26.25,89,40,0.45,JM,1698624692
27,argostolion,38.1811,20.489,19.3,63,0,2.76,GR,1698625247
28,bredasdorp,-34.5322,20.0403,12.7,58,0,7.58,ZA,1698625247
29,igrim,63.1906,64.4162,-9.39,84,100,2.8,RU,1698625247
30,bandon,51.7469,-8.7425,9.77,93,99,1.65,IE,1698625247
31,haiku-pauwela,20.9219,-156.3051,29.01,60,20,7.2,US,1698625182
32,kone,-21.0595,164.8658,25.89,41,6,3.76,NC,1698625248
33,st. john's,47.5649,-52.7093,5.44,70,75,11.32,CA,1698625248
34,anadyr,64.75,177.4833,-1.72,92,40,8.0,RU,1698625248
35,lebu,-37.6167,-73.65,8.3,63,43,3.35,CL,1698625248
36,stari kuty,48.2709,25.1729,13.33,59,75,2.56,UA,1698625248
37,fale old settlement,-9.3852,-171.2468,28.83,69,94,5.02,TK,1698625248
38,edinburgh of the seven seas,-37.0676,-12.3116,10.96,66,48,11.86,SH,1698625249
39,xucheng,20.35,110.1288,23.21,90,100,5.47,CN,1698625249
40,whangarei,-35.7317,174.3239,18.38,94,100,5.57,NZ,1698625249
41,puerto natales,-51.7236,-72.4875,2.71,78,89,3.16,CL,1698625249
42,stanley,54.868,-1.6985,7.62,93,75,2.06,GB,1698625249
43,nova sintra,14.8667,-24.7167,22.83,70,74,3.11,CV,1698625249
44,tiksi,71.6872,128.8694,-16.81,99,74,3.11,RU,1698625049
45,butembo,0.15,29.2833,13.43,95,55,1.23,CD,1698625250
46,kavieng,-2.5744,150.7967,25.25,91,100,6.86,PG,1698625250
47,meadow lakes,61.6247,-149.6011,8.31,49,100,1.34,US,1698625250
48,corner brook,48.9667,-57.9484,3.62,52,93,7.76,CA,1698625121
49,iqaluit,63.7506,-68.5145,-8.15,73,100,5.14,CA,1698625250
50,lata,40.1629,-8.3327,17.12,92,58,2.51,PT,1698625250
51,high river,50.5834,-113.8687,-3.84,88,11,1.83,CA,1698625069
52,guerrero negro,27.9769,-114.0611,24.3,47,0,6.34,MX,1698624999
53,papatowai,-46.5619,169.4708,14.55,53,8,4.69,NZ,1698625251
54,howrah,22.5892,88.3103,23.0,88,20,0.0,IN,1698625251
55,happy valley-goose bay,53.3168,-60.3315,-0.83,55,75,8.75,CA,1698625251
56,rongelap,11.1635,166.8941,28.79,74,82,7.93,MH,1698625251
57,albany,42.6001,-73.9662,6.47,93,100,1.03,US,1698625008
58,sao joao da barra,-21.6403,-41.0511,25.05,86,96,10.36,BR,1698625252
59,kodiak,57.79,-152.4072,8.73,93,100,4.12,US,1698625087
60,kruisfontein,-34.0033,24.7314,9.14,77,21,1.59,ZA,1698625252
61,constantia,44.1833,28.65,11.38,69,0,3.18,RO,1698625252
62,atafu village,-8.5421,-172.5159,29.03,71,98,5.07,TK,1698625018
63,thompson,55.7435,-97.8558,-3.91,74,75,4.12,CA,1698625017
64,khandyga,62.6667,135.6,-5.88,96,100,1.2,RU,1698625252
65,ghadamis,30.1337,9.5007,25.4,19,96,4.07,LY,1698625253
66,bilibino,68.0546,166.4372,-20.26,90,12,1.85,RU,1698625067
67,qaqortoq,60.7167,-46.0333,4.83,69,100,5.1,GL,1698625253
68,mangrol,21.1167,70.1167,26.36,60,85,1.67,IN,1698625055
69,cedeira,43.6797,-8.0209,11.1,73,100,9.28,ES,1698625253
70,utrik,11.2278,169.8474,28.03,80,24,9.42,MH,1698625253
71,cadale,2.7603,46.3222,25.76,79,100,2.44,SO,1698625253
72,punta arenas,-53.15,-70.9167,5.06,60,20,8.23,CL,1698624959
73,ushuaia,-54.8,-68.3,0.81,75,75,6.17,AR,1698625254
74,jamestown,42.097,-79.2353,8.9,96,100,0.45,US,1698625254
75,ola,59.5833,151.2833,-3.25,63,16,1.85,RU,1698625254
76,lorengau,-2.0226,147.2712,25.69,89,100,5.28,PG,1698625254
77,aral,40.5156,81.2636,12.08,31,25,1.38,CN,1698624969
78,longyearbyen,78.2186,15.6401,-6.09,93,40,5.14,SJ,1698625254
79,arraial do cabo,-22.9661,-42.0278,23.67,92,98,5.94,BR,1698625254
80,quellon,-43.1167,-73.6167,6.08,90,94,5.97,CL,1698625255
81,talnakh,69.4865,88.3972,-19.89,93,57,1.85,RU,1698625255
82,port lincoln,-34.7333,135.8667,15.4,64,44,9.08,AU,1698625255
83,west island,-12.1568,96.8225,25.99,83,100,5.66,CC,1698625039
84,nuuk,64.1835,-51.7216,6.34,52,100,10.8,GL,1698625255
85,orhei,47.3831,28.8231,10.44,53,34,3.33,MD,1698625255
86,ust-nera,64.5667,143.2,-15.06,96,68,0.6,RU,1698624962
87,mugia,43.1041,-9.2179,12.31,65,89,9.16,ES,1698625256
88,el calafate,-50.3408,-72.2768,4.62,57,65,4.98,AR,1698625256
89,cabo san lucas,22.8909,-109.9124,29.23,69,0,5.14,MX,1698624940
90,sirte,31.2089,16.5887,22.85,72,57,4.58,LY,1698625256
91,tarko-sale,64.9225,77.785,-13.11,93,11,1.69,RU,1698625256
92,wailua homesteads,22.0669,-159.378,27.44,72,75,4.63,US,1698625256
93,goundam,16.4145,-3.6708,30.77,10,43,2.6,ML,1698625256
94,carnarvon,-24.8667,113.6333,20.46,66,0,10.43,AU,1698625257
95,holualoa,19.6228,-155.9522,28.64,70,20,5.14,US,1698624965
96,westport,41.1415,-73.3579,13.25,91,100,5.14,US,1698625170
97,litovel,49.7012,17.0762,10.12,94,92,1.34,CZ,1698625257
98,wloclawek,52.6482,19.0678,13.62,74,100,6.2,PL,1698625257
99,bereznik,62.8551,42.7072,-5.89,96,80,1.89,RU,1698625258
100,prince george,53.9166,-122.753,1.81,55,0,2.57,CA,1698625216
101,senillosa,-39.0,-68.4167,9.88,32,78,12.75,AR,1698625258
102,argo,37.6333,22.7333,19.61,71,2,1.36,GR,1698625258
103,nouadhibou,20.931,-17.0347,20.99,88,0,5.66,MR,1698625258
104,zeya,53.75,127.2667,1.94,56,100,2.06,RU,1698625258
105,whitehorse,60.7161,-135.0538,-1.06,86,75,7.2,CA,1698625153
106,hithadhoo,-0.6,73.0833,27.14,80,83,7.35,MV,1698625258
107,iskateley,67.6803,53.1512,-8.88,86,100,5.81,RU,1698625259
108,rosetta,31.4044,30.4164,23.97,75,51,5.6,EG,1698625259
109,georgetown,5.4112,100.3354,25.96,93,20,3.09,MY,1698625150
110,fruita,39.1589,-108.729,4.76,41,0,4.63,US,1698625259
111,petropavlovsk-kamchatsky,53.0452,158.6483,3.03,59,75,3.0,RU,1698625259
112,beyneu,45.3167,55.2,13.13,67,97,4.02,KZ,1698625259
113,san patricio,28.017,-97.5169,28.08,66,33,4.64,US,1698625074
114,mezhdurechensk,53.6942,88.0603,-6.47,93,73,0.93,RU,1698625260
115,tolanaro,-25.0319,46.9987,23.04,88,20,1.03,MG,1698625260
116,cooma,-36.2333,149.1333,21.98,24,99,8.27,AU,1698625260
117,chonchi,-42.6128,-73.8092,5.07,98,70,4.11,CL,1698625260
118,cottage grove,44.8277,-92.9438,2.98,56,100,4.12,US,1698625137
119,filey,54.21,-0.2892,9.88,93,99,2.29,GB,1698625260
120,olonkinbyen,70.9221,-8.7187,0.35,69,100,1.27,SJ,1698625260
121,ceerigaabo,10.6162,47.368,16.41,76,100,0.84,SO,1698625261
122,evergreen,39.6333,-105.3172,-7.0,84,99,0.74,US,1698625261
123,fortuna,40.5982,-124.1573,17.51,48,0,4.12,US,1698625158
124,hamilton,39.1834,-84.5333,13.88,96,100,2.57,US,1698624851
125,aasiaat,68.7098,-52.8699,-5.12,77,100,1.77,GL,1698625261
126,bogoroditsk,53.7717,38.1241,-0.94,90,100,2.79,RU,1698625157
127,norala,6.5225,124.6592,26.82,82,78,0.65,PH,1698625261
128,betio village,1.358,172.9211,32.02,75,100,3.84,KI,1698625262
129,talara,-4.5772,-81.2719,21.42,88,40,7.2,PE,1698625262
130,mercedes,-34.6515,-59.4307,20.58,92,73,3.89,AR,1698625262
131,sidrolandia,-20.9319,-54.9614,27.01,51,57,2.69,BR,1698625262
132,mandalgovi,45.7625,106.2708,1.86,57,76,5.95,MN,1698625263
133,mil'kovo,55.6078,37.7956,0.23,91,100,1.95,RU,1698625263
134,kargat,55.1956,80.2811,-6.21,85,100,3.61,RU,1698625263
135,vadso,70.0744,29.7487,-5.91,93,75,3.09,NO,1698625263
136,lihue,21.9789,-159.3672,27.77,71,75,4.63,US,1698625135
137,kyshtovka,56.555,76.6271,-6.48,88,100,2.24,RU,1698625264
138,awjilah,29.1081,21.2869,21.53,43,0,2.85,LY,1698625264
139,kismayo,-0.3582,42.5454,26.48,81,75,4.11,SO,1698625264
140,port elizabeth,-33.918,25.5701,14.16,86,75,4.12,ZA,1698625088
141,eyl,7.9803,49.8164,26.28,79,99,5.36,SO,1698625265
142,pimentel,-6.8367,-79.9342,21.16,83,0,5.66,PE,1698625265
143,hasaki,35.7333,140.8333,19.05,62,0,8.14,JP,1698625265
144,gebeit,21.0667,36.3167,23.65,80,1,2.88,SD,1698625265
145,vrangel',42.7297,133.0839,10.33,68,64,0.57,RU,1698625265
146,zhezqazghan,47.7833,67.7667,11.94,73,96,6.99,KZ,1698625116
147,tralee,52.2704,-9.7026,8.64,94,99,2.04,IE,1698625266
148,buala,-8.145,159.5921,29.86,69,92,2.54,SB,1698625266
149,zhumysker,49.3333,49.4,7.01,75,22,7.17,KZ,1698625266
150,nuku'alofa,-21.1333,-175.2,28.19,74,20,8.23,TO,1698625267
151,kogalym,62.2654,74.4791,-14.76,99,82,1.75,RU,1698625267
152,marlborough,-41.6667,173.5,14.78,41,100,2.87,NZ,1698625267
153,langsa,4.4683,97.9683,24.01,93,100,0.67,ID,1698625267
154,puerto deseado,-47.7503,-65.8938,5.77,67,76,8.87,AR,1698625268
155,ikalamavony,-21.15,46.5833,21.55,53,14,0.79,MG,1698625268
156,cassilandia,-19.1133,-51.7342,25.65,70,86,0.42,BR,1698625268
157,itamaraca,-7.7478,-34.8256,27.03,74,89,5.23,BR,1698625268
158,akureyri,65.6835,-18.0878,-7.04,93,0,0.0,IS,1698625268
159,carsamba,41.1989,36.7219,13.86,94,100,1.54,TR,1698625269
160,touros,-5.1989,-35.4608,25.35,75,33,6.91,BR,1698625269
161,kati,12.7441,-8.0726,22.67,51,88,1.21,ML,1698625269
162,ulanhot,46.0833,122.0833,3.93,22,14,4.16,CN,1698625269
163,south hedland,-20.4089,118.5983,28.96,84,99,4.12,AU,1698625269
164,brookings,44.3114,-96.7984,-2.19,84,100,7.2,US,1698625270
165,road town,18.4167,-64.6167,27.05,89,40,3.09,VG,1698625270
166,tura,25.5198,90.2201,19.01,94,10,1.23,IN,1698625145
167,nieuw amsterdam,5.8833,-55.0833,28.34,82,61,5.54,SR,1698625271
168,dongcun,36.7767,121.1597,19.01,73,0,3.21,CN,1698625271
169,taoudenni,22.6783,-3.9836,31.11,11,0,3.41,ML,1698625271
170,juan griego,11.0817,-63.9655,27.9,80,54,2.99,VE,1698625271
171,ulsteinvik,62.3432,5.8487,5.42,53,0,4.47,NO,1698625272
172,nemuro,43.3236,145.575,10.08,68,11,3.88,JP,1698625029
173,college,64.8569,-147.8028,2.67,74,100,1.54,US,1698625272
174,cranleigh,51.1421,-0.4837,13.18,97,38,6.93,GB,1698625272
175,port alfred,-33.5906,26.891,15.02,64,99,7.47,ZA,1698625273
176,broome,42.2506,-75.833,9.7,90,100,3.09,US,1698625273
177,olyokminsk,60.3736,120.4264,-8.73,70,21,1.67,RU,1698625273
178,west gulfport,30.4041,-89.0942,24.01,87,20,3.6,US,1698625274
179,invercargill,-46.4,168.35,17.79,49,8,1.34,NZ,1698625012
180,christchurch,-43.5333,172.6333,17.52,72,75,7.2,NZ,1698625170
181,nizhneudinsk,54.9076,99.0276,-9.15,67,6,1.03,RU,1698625274
182,mo i rana,66.3128,14.1428,-4.74,86,100,3.13,NO,1698625274
183,kailua-kona,19.6406,-155.9956,29.99,69,20,5.14,US,1698625185
184,mejit,10.2753,170.8646,28.01,81,88,9.44,MH,1698625082
185,tazacorte,28.629,-17.9293,22.54,80,0,3.13,ES,1698625275
186,kavaratti,10.5669,72.642,27.97,70,95,1.13,IN,1698625275
187,cole harbour,44.6724,-63.4751,6.66,71,100,0.89,CA,1698625276
188,karratha,-20.7377,116.8463,32.05,29,80,2.58,AU,1698625249
189,richards bay,-28.783,32.0377,16.15,57,94,7.03,ZA,1698625276
190,pyt-yakh,60.7499,72.8582,-9.08,93,17,2.36,RU,1698625277
191,usinsk,65.9939,57.5281,-11.63,87,99,2.68,RU,1698625127
192,sultanah,24.4926,39.5857,21.25,73,0,2.57,SA,1698625277
193,iaciara,-14.0958,-46.6317,30.36,30,56,1.01,BR,1698625277
194,nogliki,51.8333,143.1667,2.97,60,4,3.58,RU,1698625277
195,scottburgh,-30.2867,30.7532,14.51,62,99,6.87,ZA,1698625278
196,huilong,31.8111,121.655,22.18,69,0,3.44,CN,1698625278
197,naze,28.3667,129.4833,22.51,69,12,3.47,JP,1698625278
198,abomey,7.1829,1.9912,25.65,78,93,1.59,BJ,1698625278
199,rio grande,-32.035,-52.0986,22.06,94,26,2.56,BR,1698625278
200,lakatoro,-16.0999,167.4164,26.57,73,75,3.29,VU,1698625279
201,tegina,10.0706,6.1906,24.67,37,54,1.0,NG,1698625279
202,sanming,26.2486,117.6186,19.44,87,3,0.74,CN,1698625279
203,padre bernardo,-15.35,-48.5,27.1,45,29,1.22,BR,1698625279
204,salinas,36.6777,-121.6555,25.35,34,0,2.57,US,1698625034
205,frontera,26.9333,-101.45,26.86,65,75,5.14,MX,1698625280
206,polyarnyy,69.1989,33.4478,-6.57,94,100,2.72,RU,1698625280
207,kearney,40.6995,-99.0815,0.49,73,40,4.63,US,1698624794
208,ribeira grande,38.5167,-28.7,17.72,64,100,2.71,PT,1698625280
209,mount gambier,-37.8333,140.7667,11.16,91,89,4.0,AU,1698625280
210,maridi,4.9158,29.4742,20.56,91,93,1.78,SS,1698625281
211,badger,64.8,-147.5333,2.62,81,40,1.54,US,1698625281
212,peterborough,52.5736,-0.2478,9.6,93,20,3.6,GB,1698625253
213,monrovia,6.3005,-10.7969,24.87,82,22,2.54,LR,1698625281
214,durant,33.994,-96.3708,5.14,87,100,7.2,US,1698625076
215,konarka,19.9,86.1167,20.22,77,49,3.15,IN,1698625282
216,pariaman,-0.619,100.12,25.03,86,99,1.15,ID,1698625282
217,niafunke,15.9322,-3.9906,29.85,11,60,2.07,ML,1698625282
218,katima mulilo,-17.5,24.2667,23.28,58,97,2.38,NA,1698625282
219,uzgen,40.7699,73.3007,17.13,37,80,2.3,KG,1698625283
220,pasuquin,18.3328,120.6177,27.97,78,75,2.06,PH,1698625283
221,silver city,32.7701,-108.2803,16.98,31,0,4.12,US,1698625283
222,uturoa,-16.7333,-151.4333,26.4,78,11,6.2,PF,1698625284
223,khromtau,50.2503,58.4347,5.98,72,72,12.57,KZ,1698625284
224,nar'yan-mar,67.6713,53.087,-8.83,86,100,5.81,RU,1698625284
225,aksu,41.1231,80.2644,10.9,37,46,1.15,CN,1698625284
226,berezovyy,51.6667,135.7,1.08,63,84,0.47,RU,1698625284
227,dudinka,69.4058,86.1778,-19.66,99,76,0.78,RU,1698625080
228,novi pazar,43.1367,20.5122,10.66,88,0,1.31,RS,1698625285
229,quepos,9.4236,-84.1652,25.53,86,91,0.31,CR,1698625285
230,hadibu,12.65,54.0333,25.65,79,69,3.06,YE,1698625285
231,afaahiti,-17.75,-149.2833,25.93,83,54,7.72,PF,1698625285
232,la'ie,21.6477,-157.9253,30.98,65,4,3.13,US,1698625286
233,kapuskasing,49.4169,-82.4331,-1.95,86,75,0.51,CA,1698625286
234,port mathurin,-19.6833,63.4167,24.05,83,40,2.06,MU,1698625286
235,smithers,54.7804,-127.1743,0.18,64,75,1.03,CA,1698625286
236,gaoping,30.7758,106.1029,17.21,80,0,0.47,CN,1698625287
237,ingeniero jacobacci,-41.3427,-69.5448,2.05,48,77,11.7,AR,1698625287
238,manchester,53.4809,-2.2374,10.3,85,75,2.06,GB,1698625092
239,talcahuano,-36.7167,-73.1167,9.82,66,20,2.57,CL,1698625031
240,recani,31.2846,-4.2688,23.38,28,93,8.71,MA,1698625287
241,murzuq,25.9155,13.9184,22.54,26,0,3.99,LY,1698625288
242,weno,7.4515,151.8468,28.35,78,70,5.63,FM,1698625288
243,flying fish cove,-10.4217,105.6791,26.82,83,75,3.6,CX,1698625288
244,labytnangi,66.6572,66.4183,-14.87,98,97,1.58,RU,1698625288
245,ukhta,63.5671,53.6835,-5.8,85,100,4.47,RU,1698625288
246,boende,-0.2167,20.8667,22.98,83,23,0.46,CD,1698625289
247,cockburn town,21.4612,-71.1419,28.24,79,66,2.73,TC,1698625108
248,qoryooley,1.7878,44.53,24.1,88,99,3.4,SO,1698625289
249,side,36.7667,31.3885,22.06,51,99,1.53,TR,1698625289
250,hermanus,-34.4187,19.2345,13.27,64,0,10.33,ZA,1698625289
251,remire-montjoly,4.9167,-52.2667,28.02,83,0,2.06,GF,1698625290
252,kristiansund,63.1115,7.732,0.36,80,5,2.06,NO,1698625087
253,sabha,27.0377,14.4283,22.65,26,3,4.83,LY,1698625291
254,klyuchi,52.2667,79.1667,-0.18,91,100,2.56,RU,1698625291
255,macia,-25.0269,33.0989,17.11,69,100,6.41,MZ,1698625291
256,lhasa,29.65,91.1,2.41,78,85,2.19,CN,1698625291
257,ahar,38.4774,47.0699,13.07,57,22,1.52,IR,1698625292
258,witbank,-25.8713,29.2332,5.24,82,100,10.21,ZA,1698625292
259,manali,13.1667,80.2667,26.05,91,92,3.56,IN,1698625292
260,lincolnton,35.4737,-81.2545,22.83,74,0,0.0,US,1698625185
261,martinopolis,-22.1458,-51.1708,23.31,84,93,3.98,BR,1698625292
262,agustin codazzi,10.0341,-73.2361,27.99,82,99,1.79,CO,1698625293
263,madalena,41.2162,-8.3345,14.32,90,89,3.74,PT,1698625293
264,selfoss,63.9331,-20.9971,-0.53,71,69,2.88,IS,1698625293
265,zwedru,6.0667,-8.1281,23.09,90,68,0.2,LR,1698625293
266,susuman,62.7833,148.1667,-17.79,99,93,0.45,RU,1698625293
267,sao gabriel da cachoeira,-0.1303,-67.0892,26.41,74,100,1.24,BR,1698625294
268,cold lake,54.4502,-110.2017,-1.03,64,20,2.57,CA,1698625168
269,pechora,65.1472,57.2244,-8.97,80,99,1.79,RU,1698625294
270,aykhal,66.0,111.5,-25.03,100,74,1.54,RU,1698625294
271,navirai,-23.065,-54.1906,23.59,79,92,2.36,BR,1698625123
272,tsiombe,-25.3,45.4833,21.17,83,0,2.21,MG,1698625295
273,goz beida,13.95,20.55,28.03,19,7,3.93,TD,1698625295
274,ma'an,26.9775,110.7211,18.4,82,0,0.24,CN,1698625295
275,tulun,54.5611,100.5792,-9.25,75,11,1.38,RU,1698625296
276,northam,51.0333,-4.2167,12.59,95,97,8.58,GB,1698625296
277,etinan,4.8426,7.8525,23.59,94,100,1.07,NG,1698625296
278,kyabe,9.4515,18.9449,23.43,76,58,1.69,TD,1698625296
279,gizo,-8.103,156.8419,28.32,75,91,3.65,SB,1698625297
280,klaipeda,55.7172,21.1175,8.03,93,99,6.11,LT,1698625297
281,tateyama,34.9833,139.8667,20.61,56,0,4.58,JP,1698625128
282,gangawati,15.4333,76.5333,22.35,86,88,2.72,IN,1698625297
283,vila franca do campo,37.7167,-25.4333,15.23,99,78,1.87,PT,1698625297
284,inongo,-1.95,18.2667,23.49,84,53,0.74,CD,1698625298
285,impfondo,1.6381,18.0667,23.41,84,63,0.23,CG,1698625298
286,papar,5.7333,115.9333,29.0,78,90,1.28,MY,1698625298
287,mossel bay,-34.1831,22.146,13.56,63,3,7.28,ZA,1698625298
288,gemena,3.25,19.7667,21.53,97,49,0.38,CD,1698625298
289,antsiranana,-12.2787,49.2917,24.42,77,19,6.89,MG,1698625299
290,bilaspur,22.0833,82.15,17.24,66,4,1.13,IN,1698625299
291,kidal,18.4411,1.4078,27.93,11,0,4.18,ML,1698625299
292,kimbe,-5.5502,150.1429,28.82,78,93,0.53,PG,1698625299
293,jutai,-5.1833,-68.9,23.67,97,100,1.36,BR,1698625299
294,santa rosalia,27.3167,-112.2833,24.11,62,1,8.45,MX,1698625299
295,easton,40.6884,-75.2207,12.19,88,100,5.14,US,1698625237
296,geraldton,-28.7667,114.6,20.23,60,38,8.75,AU,1698625021
297,faya-largeau,17.9257,19.1043,25.89,17,1,6.55,TD,1698625300
298,pauls valley,34.7401,-97.2223,2.75,100,100,5.66,US,1698625300
299,'ali sabieh,11.1558,42.7125,21.98,81,78,6.73,DJ,1698625300
300,chul'man,56.8479,124.9104,-10.74,94,100,3.21,RU,1698625300
301,ferkessedougou,9.6,-5.2,25.53,61,0,1.46,CI,1698625301
302,tobruk,32.0836,23.9764,21.68,83,50,2.43,LY,1698625301
303,camapua,-19.5314,-54.0439,28.14,50,49,2.11,BR,1698625301
304,paranhos,-23.8928,-55.4311,22.43,93,100,2.41,BR,1698625301
305,ilulissat,69.2167,-51.1,-4.99,86,100,2.06,GL,1698625301
306,mundybash,53.211,87.2983,-3.92,88,93,0.63,RU,1698625301
307,enewetak,11.3474,162.3373,28.91,72,49,9.72,MH,1698625093
308,daru,-9.0763,143.2092,25.73,85,100,7.25,PG,1698625302
309,massawa,15.6097,39.45,29.51,67,94,3.67,ER,1698625302
310,tual,-5.6667,132.75,27.64,78,100,4.49,ID,1698625302
311,vorkuta,67.5,64.0,-18.76,99,24,1.75,RU,1698625302
312,marka,1.7159,44.7717,25.11,84,100,2.71,SO,1698625302
313,kiama,-34.6833,150.8667,27.99,44,80,6.65,AU,1698625303
314,isafjordur,66.0755,-23.124,1.08,80,27,1.58,IS,1698625303
315,portland,45.5234,-122.6762,15.19,42,20,5.14,US,1698624678
316,kimje,35.8017,126.8889,13.94,75,67,1.02,KR,1698625303
317,san ignacio,17.1561,-89.0714,24.17,85,19,1.42,BZ,1698625303
318,arno,60.1167,18.6333,3.21,70,100,3.44,SE,1698625303
319,vilyuchinsk,52.9306,158.4028,3.85,87,98,2.19,RU,1698625303
320,fuglafjordur,62.244,-6.814,4.26,70,100,9.29,FO,1698625304
321,nicoya,10.1483,-85.452,23.56,93,100,1.08,CR,1698625304
322,namibe,-15.1961,12.1522,19.71,86,10,1.51,AO,1698625076
323,dana point,33.467,-117.6981,26.08,15,0,2.68,US,1698625304
324,tofol,5.3248,163.0078,25.88,89,100,7.2,FM,1698625304
325,topeka,39.0483,-95.678,2.88,67,100,6.17,US,1698625231
326,vorgashor,67.5833,63.95,-18.04,98,23,2.2,RU,1698625284
327,saldanha,-33.0117,17.9442,16.03,59,0,6.45,ZA,1698625304
328,urangan,-25.3,152.9,21.53,58,0,1.42,AU,1698625305
329,qarqin,37.4185,66.0436,19.78,32,12,1.33,AF,1698625305
330,parakou,9.3372,2.6303,25.12,75,39,1.19,BJ,1698625305
331,mahina,-17.5065,-149.489,26.87,74,40,4.63,PF,1698625305
332,kalmunai,7.4167,81.8167,25.03,84,77,1.54,LK,1698625305
333,udachny,66.4167,112.4,-21.42,76,89,1.78,RU,1698625305
334,katabu,-4.9333,122.5167,29.11,60,71,1.81,ID,1698625306
335,amos,48.5669,-78.1162,0.34,95,100,0.64,CA,1698625306
336,borgo val di taro,44.487,9.7658,17.41,84,100,3.58,IT,1698625306
337,bamboo flat,11.7,92.7167,25.05,100,20,1.03,IN,1698625306
338,bardai,11.65,7.2333,24.31,22,50,3.24,NG,1698625306
339,gerze,41.8036,35.2011,18.9,75,100,1.62,TR,1698625306
340,la passe,45.5549,-0.8967,12.77,96,100,5.45,FR,1698625307
341,paracatu,-17.2222,-46.8747,28.88,39,63,0.7,BR,1698625307
342,oyotun,-6.8519,-79.3036,24.38,66,98,1.78,PE,1698625307
343,melekeok village,7.4957,134.6367,30.31,74,75,2.57,PW,1698625307
344,fairbanks,64.8378,-147.7164,2.68,81,40,1.54,US,1698625128
345,spring creek,40.7266,-115.5859,5.83,30,0,1.34,US,1698625307
346,floro,61.5996,5.0328,5.54,35,0,4.63,NO,1698625307
347,cabinda,-5.55,12.2,27.08,89,100,4.12,AO,1698625308
348,bubaque,11.2833,-15.8333,28.2,75,36,4.01,GW,1698625308
349,saipan,15.1355,145.701,31.39,74,40,6.17,MP,1698625308
350,warmbad,-28.45,18.7333,15.51,19,0,11.33,NA,1698625308
351,hawaiian paradise park,19.5933,-154.9731,27.73,76,40,3.6,US,1698625088
352,new norfolk,-42.7826,147.0587,16.72,73,96,3.47,AU,1698625308
353,maceio,-9.6658,-35.7353,23.69,88,75,1.54,BR,1698625181
354,chinoz,40.9364,68.7697,17.25,41,31,1.62,UZ,1698625308
355,darwin,-12.4611,130.8418,31.08,66,86,2.52,AU,1698625208
356,coquimbo,-29.9533,-71.3436,15.85,88,40,4.12,CL,1698625108
357,rio verde de mato grosso,-18.9181,-54.8442,28.67,54,48,2.02,BR,1698625309
358,gap,44.6667,6.0,3.24,88,100,2.92,FR,1698625309
359,campbellsville,37.3434,-85.3419,18.18,97,99,2.11,US,1698625309
360,abepura,-2.6333,140.5833,25.45,89,20,1.03,ID,1698625309
361,el abiodh sidi cheikh,32.893,0.5484,19.23,28,99,4.07,DZ,1698625310
362,belyy yar,53.6039,91.3903,-8.06,86,0,0.0,RU,1698625310
363,hell-ville,-13.4,48.2667,26.91,72,3,0.74,MG,1698625310
364,quillacollo,-17.4,-66.2833,22.04,33,20,3.09,BO,1698625310
365,san antonio de pale,-1.4014,5.6325,26.34,84,10,4.21,GQ,1698625310
366,mount pearl,47.5166,-52.7813,4.98,71,75,11.32,CA,1698625134
367,vitebsk,55.1905,30.2033,0.96,95,100,6.53,BY,1698625311
368,manta,-0.95,-80.7333,25.88,73,75,4.63,EC,1698625311
369,tekkali,18.6167,84.2333,21.14,71,15,1.99,IN,1698625311
370,gazojak,41.1875,61.4036,17.44,51,62,1.8,TM,1698625095
371,namtsy,62.7161,129.6658,-14.49,93,99,1.86,RU,1698625311
372,puerto aysen,-45.4,-72.7,-0.44,97,93,0.88,CL,1698625311
373,guelmim,28.987,-10.0574,16.19,67,91,4.12,MA,1698625312
374,mariehamn,60.0973,19.9348,3.23,93,75,2.06,AX,1698625312
375,tazovsky,67.4667,78.7,-16.2,94,13,1.4,RU,1698625312
376,beira,-19.8436,34.8389,23.05,94,40,7.72,MZ,1698625312
377,comodoro rivadavia,-45.8667,-67.5,4.92,81,75,1.54,AR,1698625035
378,koumra,8.9126,17.5539,23.34,83,36,1.76,TD,1698625312
379,laojunmiao,39.8333,97.7333,7.82,27,79,3.2,CN,1698625313
380,kirakira,-10.4544,161.9205,29.4,73,68,3.76,SB,1698625313
381,grand falls-windsor,48.9332,-55.6649,3.61,62,23,0.89,CA,1698625313
382,novoishimskiy,53.1981,66.7694,4.96,100,100,4.01,KZ,1698625313
383,st. paul,44.9444,-93.0933,2.88,52,100,4.12,US,1698625205
384,lompoc,34.6391,-120.4579,23.16,43,0,4.02,US,1698625313
385,devonport,-41.1667,146.35,13.62,90,95,0.89,AU,1698625313
386,itoman,26.1247,127.6694,25.43,62,20,5.14,JP,1698625314
387,codrington,-38.2667,141.9667,11.24,92,53,5.09,AU,1698625314
388,pohang,36.0322,129.365,14.68,71,41,2.73,KR,1698625314
389,castillos,-34.1667,-53.8333,15.88,92,11,1.4,UY,1698625314
390,chui,-33.6971,-53.4616,17.32,94,10,2.49,UY,1698625314
391,saint-joseph,-21.3667,55.6167,23.21,84,27,4.81,RE,1698625314
392,la tuque,47.4334,-72.7824,-0.86,86,94,0.51,CA,1698625283
393,constitucion,-35.3333,-72.4167,9.93,85,25,2.03,CL,1698625315
394,nema,57.5067,50.5011,-2.61,97,100,3.7,RU,1698625315
395,likhoslavl',57.1275,35.464,-2.3,97,95,1.74,RU,1698625315
396,inarajan village,13.2736,144.7484,31.54,86,27,4.21,GU,1698625315
397,bodaybo,57.8506,114.1933,-7.69,56,99,1.93,RU,1698625315
398,san jose de guanipa,8.8872,-64.1651,28.55,62,96,3.56,VE,1698625315
399,bemidji,47.4736,-94.8803,-4.49,85,75,5.14,US,1698625315
400,lushun,38.8,121.2667,18.12,80,28,3.03,CN,1698625316
401,hualien city,23.9769,121.6044,23.91,85,89,2.37,TW,1698625316
402,vicuna mackenna,-33.9197,-64.3922,18.27,79,3,3.58,AR,1698625316
403,bandarbeyla,9.4942,50.8122,25.96,81,87,3.72,SO,1698625316
404,dededo village,13.5178,144.8391,30.9,72,40,6.69,GU,1698625316
405,wynyard,-41.0,145.7167,12.21,77,98,5.94,AU,1698625129
406,ylitornio,66.3089,23.6773,-8.87,90,70,0.45,FI,1698625317
407,san carlos de bariloche,-41.1456,-71.3082,-0.14,86,75,10.29,AR,1698625317
408,leava,-14.3,-178.1667,28.12,75,34,3.19,WF,1698625317
409,necochea,-38.5473,-58.7368,14.01,46,31,6.01,AR,1698625317
410,igboho,8.8333,3.75,23.66,81,57,1.61,NG,1698625317
411,ocos,14.5094,-92.1933,27.1,82,100,3.0,GT,1698625317
412,guane,22.2025,-84.0875,24.49,85,10,3.0,CU,1698625318
413,vanimo,-2.6741,141.3028,27.28,83,62,1.55,PG,1698625318
414,prilep,41.3464,21.5544,12.13,64,0,0.88,MK,1698625318
415,correntina,-13.3433,-44.6367,29.87,27,43,1.68,BR,1698625318
416,alto parana,-23.1289,-52.3189,25.02,61,88,2.93,BR,1698625318
417,kolonia town,6.964,158.206,27.06,100,100,1.54,FM,1698625318
418,sarai,53.7458,41.0213,0.29,89,100,5.17,RU,1698625318
419,hibbing,47.4272,-92.9377,-3.22,38,100,4.12,US,1698625319
420,ulaangom,49.9811,92.0667,-3.94,78,68,1.71,MN,1698625319
421,rumphi,-11.0186,33.8575,21.28,59,90,2.39,MW,1698625319
422,dame-marie,18.5667,-74.4167,27.14,77,79,0.86,HT,1698625319
423,warrenton,-28.114,24.8475,11.88,65,44,8.04,ZA,1698625319
424,devils lake,48.1128,-98.8651,-5.94,86,40,7.2,US,1698625319
425,kerikeri,-35.2268,173.9474,18.84,93,100,2.24,NZ,1698625261
426,nabire,-3.3667,135.4833,26.06,86,93,0.84,ID,1698625320
427,hirara,24.8,125.2833,26.15,61,20,4.63,JP,1698625320
428,umm ruwaba,12.9061,31.2158,27.31,56,79,4.11,SD,1698625320
429,aracati,-4.5617,-37.7697,26.7,77,86,6.94,BR,1698625277
430,nelson bay,-32.7167,152.15,28.38,54,4,4.92,AU,1698625320
431,manokwari,-0.8667,134.0833,28.1,67,45,0.89,ID,1698625086
432,sandnessjoen,66.0217,12.6316,-2.71,73,28,3.85,NO,1698625320
433,navashino,55.5292,42.2003,-0.77,92,98,3.85,RU,1698625321
434,mtwango,-9.0167,34.8,14.58,83,70,5.08,TZ,1698625321
435,rabo de peixe,37.8,-25.5833,14.73,99,40,2.68,PT,1698625321
436,gaiman,-43.2897,-65.4929,11.3,36,100,3.62,AR,1698625201
437,leshan,29.5623,103.7639,18.1,82,100,1.07,CN,1698625321
438,san fernando de apure,7.8878,-67.4724,27.81,69,42,0.97,VE,1698625321
439,liwale,-9.7667,37.9333,23.54,78,62,2.97,TZ,1698625322
440,bismarck,46.8083,-100.7837,-4.09,76,100,5.14,US,1698625322
441,bontang,0.1333,117.5,26.77,79,32,1.14,ID,1698625322
442,kudahuvadhoo,2.6708,72.8944,27.87,71,94,5.79,MV,1698625322
443,east ballina,-28.8667,153.5833,24.33,55,1,3.12,AU,1698625322
444,maloye ganyushkino,46.6,49.2667,11.76,70,4,5.37,KZ,1698625323
445,hajjah,15.6943,43.6058,17.83,73,100,0.58,YE,1698625323
446,bathsheba,13.2167,-59.5167,28.34,83,20,7.2,BB,1698625323
447,itaituba,-4.2761,-55.9836,30.21,49,92,1.0,BR,1698625323
448,lerwick,60.1545,-1.1494,8.0,66,13,13.16,GB,1698625324
449,auki,-8.7676,160.7034,29.12,72,61,2.19,SB,1698625324
450,suva,-18.1416,178.4415,28.71,74,75,3.09,FJ,1698625324
451,fortaleza,-3.7227,-38.5247,28.93,77,0,4.12,BR,1698625200
452,egilsstadir,65.2653,-14.3948,-0.05,100,40,2.06,IS,1698625324
453,carloforte,39.145,8.3058,22.01,79,67,4.32,IT,1698625325
454,shingu,33.7333,135.9833,17.29,58,0,0.93,JP,1698625325
455,fort st. john,56.2499,-120.8529,-2.06,74,75,2.57,CA,1698625325
456,cartagena del chaira,1.3349,-74.8429,23.15,98,100,1.39,CO,1698625325
457,paragominas,-2.9667,-47.4833,28.07,52,66,1.74,BR,1698625326
458,wysokie mazowieckie,52.9166,22.5171,8.9,76,100,6.76,PL,1698625326
459,novyy turtkul',41.55,61.0167,10.95,53,44,1.52,UZ,1698625326
460,bereeda,11.8704,51.0579,25.84,82,89,3.11,SO,1698625326
461,moyynkum,44.2914,72.9469,16.19,51,100,2.69,KZ,1698625327
462,port moresby,-9.4431,147.1797,29.68,70,75,5.14,PG,1698625327
463,atlantis,-33.5667,18.4834,13.32,69,0,4.13,ZA,1698625327
464,hotan,37.0997,79.9269,13.12,21,67,1.76,CN,1698625328
465,ingeniero guillermo n. juarez,-23.9,-61.85,32.02,45,31,8.49,AR,1698625328
466,tafi viejo,-26.732,-65.2592,25.91,54,0,3.6,AR,1698625328
467,nykvarn,59.8,18.3,3.79,79,100,2.55,SE,1698625329
468,wick,58.4333,-3.0833,8.03,76,75,9.26,GB,1698625329
469,anori,-3.7728,-61.6442,30.87,35,13,0.9,BR,1698625329
470,lanzhou,36.0564,103.7922,11.68,46,0,0.81,CN,1698625329
471,dean funes,-30.4204,-64.3498,24.81,21,12,3.47,AR,1698625329
472,zaozersk,69.4005,32.4476,-7.67,95,100,2.2,RU,1698625330
473,bobo-dioulasso,11.1771,-4.2979,25.25,83,0,0.0,BF,1698625330
474,mzimba,-11.9,33.6,21.68,53,69,5.55,MW,1698625330
475,denham springs,30.4869,-90.9562,28.04,69,100,3.6,US,1698625330
476,taulaga,-11.0553,-171.0883,28.6,72,55,4.47,AS,1698625330
477,sao vicente,-23.9631,-46.3919,27.37,59,100,3.13,BR,1698625331
478,broken hill,-31.95,141.4333,22.27,24,46,2.14,AU,1698625331
479,island harbour,50.724,-1.2758,14.4,78,24,4.02,GB,1698625331
480,mendi,-6.1761,143.6513,18.74,77,86,1.72,PG,1698625331
481,minas de marcona,-15.2119,-75.1103,15.79,81,43,5.92,PE,1698625331
482,galliano,29.4422,-90.2992,26.11,83,40,1.54,US,1698625332
483,villa gesell,-37.2639,-56.973,15.59,62,100,6.59,AR,1698625332
484,meulaboh,4.1363,96.1285,24.61,90,100,1.38,ID,1698625332
485,motygino,58.1831,94.7592,-7.34,75,27,0.45,RU,1698625332
486,cabugao,17.7931,120.4578,29.38,74,73,1.23,PH,1698625333
487,grand gaube,-20.0064,57.6608,23.22,78,7,6.79,MU,1698625333
488,flin flon,54.7682,-101.865,-2.76,82,100,3.6,CA,1698625333
489,mary,37.0,62.5,20.95,29,47,3.97,TM,1698625333
490,nova olinda do norte,-3.8881,-59.0942,32.27,40,51,1.89,BR,1698625333
491,boyolangu,-8.1181,111.8935,26.49,76,56,2.63,ID,1698625333
492,tupelo,34.2576,-88.7034,26.16,55,75,0.0,US,1698624901
493,rio grande city,26.3798,-98.8203,29.5,42,0,7.28,US,1698625260
494,vanino,49.0869,140.2543,3.85,45,30,0.27,RU,1698625334
495,kushva,58.2906,59.7592,-5.66,94,100,4.57,RU,1698625334
496,the pas,53.8251,-101.2541,-2.99,86,20,3.6,CA,1698625334
497,peniche,39.3558,-9.3811,16.17,83,47,8.09,PT,1698625335
498,rufino,-34.2683,-62.7126,16.18,89,30,3.1,AR,1698625190
499,ndele,8.4109,20.6473,22.24,81,22,0.67,CF,1698625335
500,peace river,56.2501,-117.286,-1.83,74,100,3.09,CA,1698625108
501,todos santos,23.45,-110.2167,26.84,74,7,3.25,MX,1698625335
502,crane,31.3974,-102.3501,3.15,78,100,9.08,US,1698625336
503,newquay,50.4132,-5.0819,13.24,93,40,6.17,GB,1698625336
504,alice springs,-23.7,133.8833,32.75,6,58,7.72,AU,1698625076
505,houlton,46.1262,-67.8403,0.9,85,0,0.0,US,1698625336
506,darley,-37.6377,144.4263,20.82,45,40,1.79,AU,1698625337
507,vicuna,-30.0319,-70.7081,19.32,57,9,1.26,CL,1698625337
508,loukhi,66.0764,33.0381,-7.5,97,38,1.52,RU,1698625337
509,fort bragg,35.139,-79.006,21.75,77,0,0.0,US,1698625337
510,mizdah,31.4451,12.9801,21.69,31,100,2.75,LY,1698625338
511,hafar al-batin,28.4328,45.9708,21.32,32,40,0.0,SA,1698625338
512,okakarara,-20.5833,17.4333,20.02,20,9,4.85,NA,1698625338
513,pergamino,-33.89,-60.5736,17.21,96,26,4.69,AR,1698625334
514,kazanskoye,55.6448,69.235,-2.6,94,100,7.71,RU,1698625338
515,caburan,5.9181,125.6411,27.76,74,49,0.55,PH,1698625339
516,acajutla,13.5928,-89.8275,26.43,83,100,5.27,SV,1698625339
517,la ronge,55.1001,-105.2842,-1.86,64,100,7.72,CA,1698625339
518,dhamar,14.5427,44.4051,13.7,68,68,2.07,YE,1698625339
519,taro,-8.3862,115.28,24.0,61,43,1.05,ID,1698625340
520,burutu,5.3509,5.5076,24.36,91,100,3.4,NG,1698625340
521,la ligua,-32.4524,-71.2311,13.85,92,53,1.46,CL,1698625340
522,luderitz,-26.6481,15.1594,22.29,29,0,4.87,NA,1698625340
523,luebo,-5.35,21.4167,23.41,88,71,0.1,CD,1698625341
524,tilaran,10.4703,-84.9671,22.26,99,100,1.41,CR,1698625341
525,rudbar,30.15,62.6,23.19,33,55,1.95,AF,1698625341
526,indramayu,-6.3264,108.32,27.76,64,54,2.86,ID,1698625341
527,kabwe,-14.4469,28.4464,21.82,61,100,3.32,ZM,1698625342
528,kapshagay,43.8833,77.0833,14.7,70,100,2.11,KZ,1698625342
529,kayangel,8.0823,134.7173,28.46,74,17,3.76,PW,1698625342
530,woolgoolga,-30.1106,153.2007,27.25,54,1,4.34,AU,1698625342
531,xai-xai,-25.0519,33.6442,19.39,59,100,9.1,MZ,1698625343
532,lamu,-2.2717,40.902,25.12,84,22,4.27,KE,1698625343
533,east london,-33.0153,27.9116,14.53,65,100,5.79,ZA,1698625343
534,dolinsk,47.35,142.8,4.84,57,7,1.54,RU,1698625343
535,nagqu,31.5,92.0,-4.78,88,100,1.24,CN,1698625344
536,yermakovskoye,53.2831,92.4003,-4.65,52,95,0.59,RU,1698625344
537,zag,46.9441,99.165,-2.91,88,82,1.79,MN,1698625344
538,magistral'nyy,56.1725,107.4458,-8.13,65,21,1.6,RU,1698625344
539,bayanhongor,46.7167,100.1167,-3.28,95,98,0.4,MN,1698625344
540,lusaka,-15.4067,28.2871,22.46,52,95,2.65,ZM,1698625114
541,puerto baquerizo moreno,-0.9,-89.6,23.3,78,64,5.55,EC,1698625345
542,salinopolis,-0.6136,-47.3561,27.38,78,34,6.45,BR,1698625147
543,badiyah,22.45,58.8,24.65,65,97,0.77,OM,1698625345
544,soufriere,13.8562,-61.0566,25.81,94,40,3.6,LC,1698625345
545,siwa oasis,29.2041,25.5195,22.43,70,3,3.05,EG,1698625345
546,alaghsas,17.0187,8.0168,26.91,10,0,4.95,NE,1698625346
547,ust'-ilimsk,58.0006,102.6619,-6.42,68,84,3.13,RU,1698625346
548,kralendijk,12.15,-68.2667,28.99,79,20,1.54,BQ,1698625346
549,baruun-urt,46.6806,113.2792,-2.84,36,23,2.22,MN,1698625262
550,guiuan,11.0333,125.7247,28.75,73,46,4.62,PH,1698625346
551,feijo,-8.1642,-70.3536,22.48,98,100,1.21,BR,1698625347
552,north bend,43.4065,-124.2243,18.95,42,0,1.54,US,1698625347
553,bandrele,-12.9067,45.1914,26.86,78,75,2.57,YT,1698625347
554,carutapera,-1.195,-46.02,26.13,78,65,3.72,BR,1698625347
555,crucecita,-28.95,-58.9833,24.7,76,31,3.47,AR,1698625347
556,kashgar,39.4547,75.9797,12.56,30,0,4.0,CN,1698625348
557,humaita,-7.5061,-63.0208,32.59,32,85,0.93,BR,1698625348
558,sol'-iletsk,51.1631,54.9918,4.71,80,100,8.96,RU,1698625348
559,laguna,38.421,-121.4238,23.36,20,0,3.6,US,1698625348
560,rabaul,-4.1967,152.1721,27.67,75,96,1.21,PG,1698625349
561,duvall,47.7423,-121.9857,12.96,61,6,1.79,US,1698625349
562,yuksekova,37.5736,44.2872,2.86,93,40,1.03,TR,1698625349
563,iquique,-20.2208,-70.1431,18.02,82,83,3.54,CL,1698625349
564,beau vallon,-20.4189,57.6953,23.13,88,40,1.03,MU,1698625350
565,nautanwa,27.4333,83.4167,19.21,72,1,0.67,IN,1698625350
566,taltal,-25.4,-70.4833,16.84,78,25,1.8,CL,1698625350
567,santa elena de uairen,4.6167,-61.1333,23.44,60,80,1.41,VE,1698625066
